CD,STATION,ICAO,IATA,SYNOP,LATdeg,LATmin,LONdeg,LONmin,ELEV,M,N,V,U,A,C,PRIORITY,COUNTRY CODE,LAT,LON
AK,ADAK NAS,PADK,ADK,70454,51,53N,176,39W,3,X,,T,,,,7.0,US,51.88333333333333,-176.65
AK,AKHIOK,PAKH,AKK,,56,56N,154,11W,15,X,,,,,,8.0,US,56.93333333333333,-154.18333333333334
AK,AKUTAN,PAUT,KQA,,54,08N,165,36W,25,X,,,,,,7.0,US,54.13333333333333,-165.6
AK,AMBLER,PAFM,ABL,,67,06N,157,51W,79,X,,,,,,7.0,US,67.1,-157.85
AK,ANAKTUVUK PASS,PAKP,AKP,,68,08N,151,44W,649,X,,,,,,7.0,US,68.13333333333334,-151.73333333333332
AK,ANCHORAGE INTL,PANC,ANC,70273,61,10N,150,01W,39,X,,T,X,A,,5.0,US,61.166666666666664,-150.01666666666668
AK,ANCHORAGE/LAKE H,PALH,,,61,11N,149,58W,26,X,,,,A,,7.0,US,61.18333333333333,-149.96666666666667
AK,ANCHORAGE/MERRIL,PAMR,MRI,,61,13N,149,51W,43,X,,,,A,,7.0,US,61.21666666666667,-149.85
AK,ANGOON SEAPLANE,PAGN,AGN,70383,57,30N,134,35W,2,X,,,,,,8.0,US,57.5,-134.58333333333334
AK,ANIAK,PANI,ANI,70232,61,35N,159,32W,21,X,,,,,,7.0,US,61.583333333333336,-159.53333333333333
AK,ANNETTE ISLAND,PANT,ANN,70398,55,02N,131,34W,29,X,,,X,A,,5.0,US,55.03333333333333,-131.56666666666666
AK,ANVIK,PANV,ANV,,62,39N,160,11W,91,X,,,,,,7.0,US,62.65,-160.18333333333334
AK,ARCTIC VILLAGE,PARC,ARC,,68,07N,145,35W,626,X,,,,,,7.0,US,68.11666666666666,-145.58333333333334
AK,ATKA,PAAK,AKB,,52,13N,174,12W,11,X,,,,,,7.0,US,52.21666666666667,-174.2
AK,ATQASUK BURNELL,PATQ,ATK,,70,28N,157,26W,28,X,,,,,,7.0,US,70.46666666666667,-157.43333333333334
AK,BARTER ISLAND,PABA,BTI,,70,08N,143,35W,1,X,,,,W,,7.0,US,70.13333333333334,-143.58333333333334
AK,BETHEL,PABE,BET,70219,60,47N,161,50W,28,X,,T,X,A,,5.0,US,60.78333333333333,-161.83333333333334
AK,BETTLES,PABT,BTT,70174,66,55N,151,31W,195,X,,T,,A,,6.0,US,66.91666666666667,-151.51666666666668
AK,BIG RIVER LAKES,PALV,,,60,49N,152,18W,12,X,,,,,,7.0,US,60.81666666666667,-152.3
AK,BIRCHWOOD,PABV,,,61,25N,149,31W,21,X,,,,,,7.0,US,61.416666666666664,-149.51666666666668
AK,BREVIG MISSION,PFKT,KTS,,65,20N,166,28W,8,X,,,,,,7.0,US,65.33333333333333,-166.46666666666667
AK,BRYANT ARMY AF,PAFR,FRN,70270,61,16N,149,39W,106,X,,,,,,6.0,US,61.266666666666666,-149.65
AK,BUCKLAND,PABL,BKC,,65,59N,161,09W,7,X,,,,,,7.0,US,65.98333333333333,-161.15
AK,CANTWELL,PATW,,,63,23N,148,57W,675,X,,,,,,7.0,US,63.38333333333333,-148.95
AK,CAPE LISBURNE,PALU,LUR,70104,68,53N,166,06W,8,X,,T,,W,,6.0,US,68.88333333333334,-166.1
AK,CAPE NEWENHAM,PAEH,EHM,70305,58,39N,162,04W,101,X,,T,,,,6.0,US,58.65,-162.06666666666666
AK,CAPE ROMANZOF,PACZ,CZF,70212,61,47N,166,02W,129,X,,T,,,,6.0,US,61.78333333333333,-166.03333333333333
AK,CENTRAL,PACE,,,65,34N,144,47W,286,X,,,,,,7.0,US,65.56666666666666,-144.78333333333333
AK,CENTRAL,PARL,CEM,,65,34N,144,47W,284,X,,,,,,7.0,US,65.56666666666666,-144.78333333333333
AK,CHANDALAR LAKE,PALR,WCR,,67,30N,148,29W,579,X,,,,,,7.0,US,67.5,-148.48333333333332
AK,CHEVAK,PAVA,VAK,,61,32N,165,36W,14,X,,,,,,7.0,US,61.53333333333333,-165.6
AK,CHIGNIK BAY,PAJC,,,56,19N,158,22W,10,X,,,,,,7.0,US,56.31666666666667,-158.36666666666667
AK,CHULITNA,PAEC,,,62,53N,149,34W,389,X,,,,,,7.0,US,62.88333333333333,-149.56666666666666
AK,CIRCLE/PAFC RFC,PACR,IRC,,65,50N,144,04W,182,X,,,,,R,7.0,US,65.83333333333333,-144.06666666666666
AK,CLARKS POINT,PFCL,CLP,,58,50N,158,32W,23,X,,,,,,7.0,US,58.833333333333336,-158.53333333333333
AK,COLD BAY,PACD,CDB,70316,55,13N,162,43W,23,X,,T,X,A,,5.0,US,55.21666666666667,-162.71666666666667
AK,CORDOVA,PACV,CDV,70296,60,30N,145,28W,15,X,,T,,A,,6.0,US,60.5,-145.46666666666667
AK,DEADHORSE,PASC,SCC,,70,12N,148,28W,17,X,,T,,A,,6.0,US,70.2,-148.46666666666667
AK,DEERING,PADE,DRG,,66,04N,162,46W,5,X,,,,A,,7.0,US,66.06666666666666,-162.76666666666668
AK,DELTA JUNCTION,PABI,BIG,70267,64,00N,145,43W,388,X,,T,,A,,6.0,US,64.0,-145.71666666666667
AK,DILLINGHAM,PADL,DLG,70321,59,03N,158,30W,20,X,,T,,,,6.0,US,59.05,-158.5
AK,DUTCH HARBOR,PADU,DUT,70489,53,54N,166,32W,4,X,,T,,,,6.0,US,53.9,-166.53333333333333
AK,EAGLE,PAEG,EAA,,64,47N,141,09W,273,X,,,,A,,7.0,US,64.78333333333333,-141.15
AK,EARECKSON/SHEMYA,PASY,SYA,70414,52,43N,174,07E,6,X,,T,X,,,5.0,US,52.71666666666667,174.11666666666667
AK,EGEGIK,PAII,EGX,,58,11N,157,23W,31,X,,,,W,,7.0,US,58.18333333333333,-157.38333333333333
AK,EIELSON AFB,PAEI,EIL,70265,64,40N,147,06W,166,X,,T,,,,6.0,US,64.66666666666667,-147.1
AK,ELFIN COVE,PAEL,ELV,,58,12N,136,21W,8,X,,,,,,7.0,US,58.2,-136.35
AK,ELIM APRT,PFEL,ELI,,64,37N,162,16W,50,X,,,,,,7.0,US,64.61666666666666,-162.26666666666668
AK,ELMENDORF AFB,PAED,EDF,70272,61,15N,149,50W,54,X,,T,,,,6.0,US,61.25,-149.83333333333334
AK,EMMONAK,PAEM,EMK,,62,47N,164,29W,2,X,,,,,,7.0,US,62.78333333333333,-164.48333333333332
AK,EUREKA,PAZK,,,61,56N,147,10W,1002,X,,,,,,7.0,US,61.93333333333333,-147.16666666666666
AK,FAIRBANKS,PAFA,FAI,70261,64,48N,147,52W,130,X,,T,X,A,,5.0,US,64.8,-147.86666666666667
AK,FALSE PASS,PAKF,KFP,,54,51N,163,25W,2,X,,,,,,7.0,US,54.85,-163.41666666666666
AK,FAREWELL LAKE,PAFK,,,62,32N,153,36W,335,X,,,,,,7.0,US,62.53333333333333,-153.6
AK,FORT WAINWRIGHT,PAFB,FBK,,64,50N,147,37W,137,X,,T,,,,6.0,US,64.83333333333333,-147.61666666666667
AK,FORT YUKON,PFYU,FYU,70194,66,34N,145,14W,130,X,,,,,,7.0,US,66.56666666666666,-145.23333333333332
AK,FUNTER BAY,PAFN,,,58,15N,134,52W,0,X,,,,,,7.0,US,58.25,-134.86666666666667
AK,GALBRAITH LAKE,PAGB,GBH,,68,29N,149,29W,822,X,,,,,,7.0,US,68.48333333333333,-149.48333333333332
AK,GALENA,PAGA,GAL,70222,64,44N,156,56W,39,X,,T,,,,6.0,US,64.73333333333333,-156.93333333333334
AK,GAMBELL,PAGM,GAM,70204,63,46N,171,44W,6,X,,,,,,7.0,US,63.766666666666666,-171.73333333333332
AK,GOLOVIN,PAGL,GLV,,64,33N,163,00W,20,X,,,,W,,7.0,US,64.55,-163.0
AK,GULKANA,PAGK,GKN,70271,62,09N,145,27W,481,X,,T,,A,,6.0,US,62.15,-145.45
AK,GUSTAVUS,PAGS,GST,70367,58,25N,135,42W,9,X,,T,,,,6.0,US,58.416666666666664,-135.7
AK,HAINES,PAHN,HNS,,59,15N,135,31W,15,X,,T,,A,,6.0,US,59.25,-135.51666666666668
AK,HAYES RIVER,PAHZ,,,61,59N,152,05W,305,X,,,,,,7.0,US,61.983333333333334,-152.08333333333334
AK,HEALY,PAHV,,,63,52N,148,58W,387,X,,,,,,7.0,US,63.86666666666667,-148.96666666666667
AK,HOLY CROSS,PAHC,HCR,,62,11N,159,47W,21,X,,,,W,,7.0,US,62.18333333333333,-159.78333333333333
AK,HOMER,PAHO,HOM,70341,59,38N,151,29W,6,X,,T,,A,,6.0,US,59.63333333333333,-151.48333333333332
AK,HOONAH,PAOH,HNH,,58,06N,135,27W,0,X,,,,,,7.0,US,58.1,-135.45
AK,HOOPER BAY,PAHP,HPB,,61,31N,166,09W,8,X,,,,,,7.0,US,61.516666666666666,-166.15
AK,HUSLIA,PAHL,HSL,,65,42N,156,21W,49,X,,,,,,7.0,US,65.7,-156.35
AK,HUSLIA,PAHS,,,65,42N,156,23W,55,X,,,,,,7.0,US,65.7,-156.38333333333333
AK,HYDABURG,PAHY,HYG,,55,12N,132,50W,0,X,,,,,,7.0,US,55.2,-132.83333333333334
AK,IGIUGIG,PAIG,IGG,,59,19N,155,54W,24,X,,,,W,,7.0,US,59.31666666666667,-155.9
AK,ILIAMNA,PAIL,ILI,70340,59,45N,154,55W,44,X,,T,,A,,6.0,US,59.75,-154.91666666666666
AK,INDIAN MOUNTAIN,PAIM,UTO,70173,66,00N,153,42W,309,X,,T,,,,6.0,US,66.0,-153.7
AK,JUNEAU,PAJN,JNU,70381,58,21N,134,33W,6,X,,T,,A,,0.0,US,58.35,-134.55
AK,KAKE,PAFE,,,56,58N,133,55W,1,X,,,,,,7.0,US,56.96666666666667,-133.91666666666666
AK,KALSKAG,PALG,KLG,,61,32N,160,20W,13,X,,,,W,,7.0,US,61.53333333333333,-160.33333333333334
AK,KALTAG,PAKV,KAL,,64,20N,158,43W,53,X,,,,A,,7.0,US,64.33333333333333,-158.71666666666667
AK,KENAI,PAEN,ENA,70259,60,34N,151,15W,30,X,,T,,A,,6.0,US,60.56666666666667,-151.25
AK,KETCHIKAN,PAKT,KTN,70395,55,21N,131,43W,27,X,,T,,A,,6.0,US,55.35,-131.71666666666667
AK,KIANA,PAIK,IAN,,66,59N,160,26W,49,X,,,,,,8.0,US,66.98333333333333,-160.43333333333334
AK,KING COVE,PAVC,KVC,,55,07N,162,16W,48,X,,,,,,8.0,US,55.11666666666667,-162.26666666666668
AK,KING SALMON,PAKN,AKN,70326,58,41N,156,39W,20,X,,T,X,A,,5.0,US,58.68333333333333,-156.65
AK,KIPNUK,PAKI,KPN,,59,56N,164,02W,4,X,,,,,,8.0,US,59.93333333333333,-164.03333333333333
AK,KIVALINA,PAVL,KVL,,67,44N,164,33W,6,X,,,,A,,7.0,US,67.73333333333333,-164.55
AK,KLAWOCK,PAKW,KLW,,55,35N,133,04W,7,X,,T,,A,,7.0,US,55.583333333333336,-133.06666666666666
AK,KODIAK,PADQ,ADQ,70350,57,45N,152,30W,5,X,,T,X,A,,5.0,US,57.75,-152.5
AK,KOLIGANEK,PAJZ,KGK,,59,44N,157,16W,80,X,,,,,,8.0,US,59.733333333333334,-157.26666666666668
AK,KOTZEBUE,PAOT,OTZ,70133,66,53N,162,36W,3,X,,T,X,A,,5.0,US,66.88333333333334,-162.6
AK,KOYUK,PAKK,KKA,,64,56N,161,09W,56,X,,,,,,7.0,US,64.93333333333334,-161.15
AK,KUPARUK,PAKU,UUK,,70,19N,149,36W,23,X,,,,A,,7.0,US,70.31666666666666,-149.6
AK,KWETHLUK,PFKW,KWT,,60,48N,161,26W,4,X,,,,,,7.0,US,60.8,-161.43333333333334
AK,MANLEY HOT SPRIN,PAML,MLY,,65,00N,150,39W,78,X,,,,,,7.0,US,65.0,-150.65
AK,MANOKOTAK,PAMB,KMO,,58,59N,159,03W,28,X,,,,,,7.0,US,58.983333333333334,-159.05
AK,MARSHALL,PADM,MLL,,61,52N,162,02W,17,X,,,,,,8.0,US,61.86666666666667,-162.03333333333333
AK,MCCARTHY,PAMX,MXY,,61,26N,142,53W,452,X,,,,,,7.0,US,61.43333333333333,-142.88333333333333
AK,MCGRATH,PAMC,MCG,70231,62,58N,155,37W,101,X,,T,X,A,,5.0,US,62.96666666666667,-155.61666666666667
AK,MCKINLEY PARK,PAIN,MCL,,63,44N,148,55W,525,X,,,,,,7.0,US,63.733333333333334,-148.91666666666666
AK,MEKORYUK,PAMY,MYU,,60,22N,166,16W,14,X,,,,,,7.0,US,60.36666666666667,-166.26666666666668
AK,METLAKATLA,PAMM,MTM,,55,08N,131,35W,0,X,,,,,,7.0,US,55.13333333333333,-131.58333333333334
AK,MIDDLETON ISLAND,PAMD,MDO,70343,59,26N,146,18W,20,X,,,,,,7.0,US,59.43333333333333,-146.3
AK,MINCHUMINA,PAMH,LMA,70246,63,54N,152,17W,200,X,,,,,,7.0,US,63.9,-152.28333333333333
AK,MOUNTAIN VILLAGE,PAMO,MOU,,62,06N,163,41W,93,X,,,,W,,7.0,US,62.1,-163.68333333333334
AK,NABESNA,PABN,,,62,24N,143,00W,880,X,,,,,,7.0,US,62.4,-143.0
AK,NAPAKIAK,PANA,WNA,,60,41N,161,59W,7,X,,,,,,7.0,US,60.68333333333333,-161.98333333333332
AK,NELSON LAGOON,PAOU,NLG,,56,00N,161,10W,3,X,,,,,,8.0,US,56.0,-161.16666666666666
AK,NENANA,PANN,ENN,70260,64,33N,149,05W,110,X,,,,A,,7.0,US,64.55,-149.08333333333334
AK,NEW STUYAHOK,PANW,KNW,,59,27N,157,19W,100,X,,,,,,8.0,US,59.45,-157.31666666666666
AK,NIKOLAI,PAFS,NIB,,63,01N,154,21W,131,X,,,,,,7.0,US,63.016666666666666,-154.35
AK,NOATAK,PAWN,WTK,,67,34N,162,59W,26,X,,,,,,7.0,US,67.56666666666666,-162.98333333333332
AK,NOME,PAOM,OME,70200,64,30N,165,26W,6,X,,T,X,A,,5.0,US,64.5,-165.43333333333334
AK,NOORVIK,PFNO,ORV,,66,49N,161,01W,14,X,,,,,,7.0,US,66.81666666666666,-161.01666666666668
AK,NORTHWAY,PAOR,ORT,70291,62,58N,141,56W,524,X,,T,,A,,6.0,US,62.96666666666667,-141.93333333333334
AK,NUIQSUT,PAQT,NUI,,70,13N,151,00W,11,X,,T,,A,,6.0,US,70.21666666666667,-151.0
AK,NUIQSUT,PPNU,,,70,12N,150,59W,11,X,,,,,,8.0,US,70.2,-150.98333333333332
AK,NUIQSUT VILLAGE,PALP,,,70,20N,150,56W,4,X,,,,,,7.0,US,70.33333333333333,-150.93333333333334
AK,NUNAPITCHUK,PPIT,,,60,54N,162,26W,4,X,,,,,,7.0,US,60.9,-162.43333333333334
AK,OLIKTOK POINT,POLI,,70063,70,30N,149,53W,5,X,,,,,,7.0,US,70.5,-149.88333333333333
AK,OOOGURUK ISLAND,PFNU,,,70,30N,150,15W,8,X,,,,,,7.0,US,70.5,-150.25
AK,PALMER,PAAQ,PAQ,70274,61,36N,149,05W,68,X,,T,,A,,6.0,US,61.6,-149.08333333333334
AK,PAXSON,PAXK,,,63,02N,145,30W,805,X,,,,,,7.0,US,63.03333333333333,-145.5
AK,PETERSBURG,PAPG,PSG,70386,56,49N,132,56W,24,X,,T,,,,6.0,US,56.81666666666667,-132.93333333333334
AK,PILOT POINT,PAPN,PIP,,57,35N,157,34W,19,X,,,,,,8.0,US,57.583333333333336,-157.56666666666666
AK,PLATINUM,PAPM,PTU,,59,01N,161,49W,4,X,,,,,,7.0,US,59.016666666666666,-161.81666666666666
AK,POINT HOPE,PAPO,PHO,,68,21N,166,48W,4,X,,,,W,,7.0,US,68.35,-166.8
AK,POINT LAY,PPIZ,PIZ,,69,44N,163,00W,5,X,,,,W,,7.0,US,69.73333333333333,-163.0
AK,POINT THOMPSON,PAAD,,,70,08N,146,17W,8,X,,,,,,8.0,US,70.13333333333334,-146.28333333333333
AK,PORTAGE GLACIER,PATO,,,60,47N,148,51W,47,X,,,,A,,7.0,US,60.78333333333333,-148.85
AK,PORT ALEXANDER,PAAP,PTD,,56,14N,134,39W,4,X,,,,,,7.0,US,56.233333333333334,-134.65
AK,PORT ALSWORTH,PALJ,PTA,,60,12N,154,18W,88,X,,,,,,7.0,US,60.2,-154.3
AK,PORT CLARENCE,PAPC,KPC,70119,65,15N,166,51W,4,X,,,,,,7.0,US,65.25,-166.85
AK,PORT HEIDEN,PAPH,PTH,70333,56,57N,158,37W,29,X,,,,,,7.0,US,56.95,-158.61666666666667
AK,PROSPECT CREEK,PAPR,PPC,,66,49N,150,39W,324,X,,,,,,7.0,US,66.81666666666666,-150.65
AK,PRUDHOE BAY,PAUD,,,70,15N,148,20W,14,X,,,,,,7.0,US,70.25,-148.33333333333334
AK,PUNTILLA LAKE,PAPT,,70249,62,06N,152,43W,577,X,,,,,,7.0,US,62.1,-152.71666666666667
AK,QUINHAGAK,PAQH,KWN,,59,45N,161,51W,8,X,,,,,,7.0,US,59.75,-161.85
AK,REG DOG,PADG,RDB,,68,02N,162,54W,296,X,,,,,,7.0,US,68.03333333333333,-162.9
AK,REG DOG,PARD,,,68,02N,162,54W,297,X,,,,,,7.0,US,68.03333333333333,-162.9
AK,RUBY,PARY,RBY,,64,44N,155,28W,185,X,,,,,,7.0,US,64.73333333333333,-155.46666666666667
AK,RUSSIAN MISSION,PARS,RSH,,61,46N,161,19W,15,X,,,,W,,7.0,US,61.766666666666666,-161.31666666666666
AK,SAINT MARYS,PASM,KSM,,62,04N,163,18W,108,X,,,,,,7.0,US,62.06666666666667,-163.3
AK,SAND POINT,PASD,SDP,,55,20N,160,31W,6,X,,T,,,,7.0,US,55.333333333333336,-160.51666666666668
AK,SAVOONGA,PASA,SVA,,63,41N,170,30W,9,X,,,,,,7.0,US,63.68333333333333,-170.5
AK,SCAMMON BAY,PACM,SCM,,61,51N,165,34W,3,X,,,,,,7.0,US,61.85,-165.56666666666666
AK,SELAWIK,PASK,WLK,,66,36N,160,00W,3,X,,,,,,7.0,US,66.6,-160.0
AK,SELDOVIA,PASO,SOV,,59,27N,151,42W,20,X,,,,A,,7.0,US,59.45,-151.7
AK,SEWARD,PAWD,SWD,70277,60,07N,149,25W,3,X,,,,A,,7.0,US,60.11666666666667,-149.41666666666666
AK,SHAGELUK,PAHX,SHX,,62,42N,159,34W,20,X,,,,,,7.0,US,62.7,-159.56666666666666
AK,SHAKTOOLIK,PFSH,SKK,,64,22N,161,13W,6,X,,,,,,8.0,US,64.36666666666666,-161.21666666666667
AK,SHISHMAREF,PASH,SHH,,66,16N,166,05W,3,X,,,,,,7.0,US,66.26666666666667,-166.08333333333334
AK,SHUNGNAK,PAGH,,,66,53N,157,10W,56,X,,,,,,8.0,US,66.88333333333334,-157.16666666666666
AK,SITKA,PASI,SIT,70371,57,02N,135,21W,2,X,,T,,A,,6.0,US,57.03333333333333,-135.35
AK,SKAGWAY,PAGY,SGY,70362,59,28N,135,19W,7,X,,T,,A,,6.0,US,59.46666666666667,-135.31666666666666
AK,SKWENTNA,PASW,SKW,70255,61,58N,151,12W,45,X,,,,,,7.0,US,61.96666666666667,-151.2
AK,SLANA,PADT,,,62,43N,143,55W,738,X,,,,,,7.0,US,62.71666666666667,-143.91666666666666
AK,SLEETMUTE,PASL,SLQ,,61,41N,157,09W,64,X,,,,,,7.0,US,61.68333333333333,-157.15
AK,SNOWSHOE LAKE,PALK,,,62,02N,146,40W,736,X,,,,,,7.0,US,62.03333333333333,-146.66666666666666
AK,SOLDOTNA,PASX,SXQ,,60,29N,151,03W,28,X,,,,,,7.0,US,60.483333333333334,-151.05
AK,SOUTH NAKNEK,PFWS,WSN,,58,42N,157,00W,40,X,,,,,,7.0,US,58.7,-157.0
AK,SPARREVOHN,PASV,SVW,70235,61,06N,155,34W,462,X,,T,,,,7.0,US,61.1,-155.56666666666666
AK,ST GEORGE,PAPB,STG,,56,35N,169,40W,33,X,,,,A,,7.0,US,56.583333333333336,-169.66666666666666
AK,ST MICHAEL,PAMK,SMK,,63,29N,162,07W,31,X,,,,,,8.0,US,63.483333333333334,-162.11666666666667
AK,STONY RIVER LAND,PAER,,,61,16N,153,49W,358,X,,,,,,7.0,US,61.266666666666666,-153.81666666666666
AK,ST PAUL ISLAND,PASN,SNP,70308,57,09N,170,13W,8,X,,T,X,A,,5.0,US,57.15,-170.21666666666667
AK,SUTTON,PAJV,,,61,43N,148,53W,265,X,,,,,,7.0,US,61.71666666666667,-148.88333333333333
AK,TAHNETNA PASS LO,PASP,SMU,,61,49N,147,30W,838,X,,,,,,7.0,US,61.81666666666667,-147.5
AK,TALKEETNA,PATK,TKA,70251,62,19N,150,06W,107,X,,T,,A,,6.0,US,62.31666666666667,-150.1
AK,TANANA,PATA,TAL,70178,65,10N,152,06W,62,X,,T,,A,,6.0,US,65.16666666666667,-152.1
AK,TATALINA AFS,PATL,TLJ,,62,54N,155,58W,261,X,,T,,,,6.0,US,62.9,-155.96666666666667
AK,TELLER,PATE,TLA,,65,14N,166,20W,93,X,,,,,,8.0,US,65.23333333333333,-166.33333333333334
AK,TIN CITY AFS,PATC,TNC,70117,65,34N,167,55W,77,X,,T,,,,6.0,US,65.56666666666666,-167.91666666666666
AK,TOGIAK,PATG,TOG,,59,03N,160,23W,1,X,,,,,,7.0,US,59.05,-160.38333333333333
AK,TOKSOOK BAY,PAOO,OOK,,60,32N,165,05W,15,X,,,,W,,7.0,US,60.53333333333333,-165.08333333333334
AK,UMIAT,PAUM,UMT,70162,69,22N,152,08W,79,X,,,,,,7.0,US,69.36666666666666,-152.13333333333333
AK,UNALAKLEET,PAUN,UNK,70207,63,53N,160,48W,4,X,,T,,,,6.0,US,63.88333333333333,-160.8
AK,UTQIAGVIK,PABR,BRW,70026,71,17N,156,47W,6,X,,T,X,A,,5.0,US,71.28333333333333,-156.78333333333333
AK,VALDEZ,PAVD,VDZ,,61,08N,146,15W,21,X,,T,,,,6.0,US,61.13333333333333,-146.25
AK,VALDEZ WSO,PAVW,,70275,61,08N,146,21W,10,X,,,,,,7.0,US,61.13333333333333,-146.35
AK,WAINWRIGHT,PAWI,AIN,70030,70,38N,160,01W,12,X,,,,A,,7.0,US,70.63333333333334,-160.01666666666668
AK,WALES,PAIW,WAA,,65,37N,168,06W,6,X,,,,,,8.0,US,65.61666666666666,-168.1
AK,WASILLA,PAWS,WWA,,61,34N,149,32W,102,X,,,,,,7.0,US,61.56666666666667,-149.53333333333333
AK,WHITE MOUNTAIN,PAWM,WMO,,64,41N,163,25W,80,X,,,,W,,8.0,US,64.68333333333334,-163.41666666666666
AK,WHITTIER,PAWR,,,60,47N,148,41W,12,X,,,,,,7.0,US,60.78333333333333,-148.68333333333334
AK,WILDER NATWICK,PAKX,,,60,12N,154,19W,88,X,,,,,,7.0,US,60.2,-154.31666666666666
AK,WILLOW,PAUO,WOW,,61,45N,150,03W,61,X,,,,,,7.0,US,61.75,-150.05
AK,WOLVERINE ROAD,PAIZ,,,61,38N,149,02W,236,X,,,,,,7.0,US,61.63333333333333,-149.03333333333333
AK,WRANGELL,PAWG,WRG,70387,56,29N,132,22W,6,X,,T,,,,6.0,US,56.483333333333334,-132.36666666666667
AK,YAKUTAT,PAYA,YAK,70361,59,31N,139,40W,9,X,,T,X,A,,5.0,US,59.516666666666666,-139.66666666666666
AL,ALABASTER,KEET,,72230,33,11N,086,47W,172,X,,T,,A,,3.0,US,33.18333333333333,-86.78333333333333
AL,ALBERTVILLE MUNI,K8A0,,,34,14N,086,15W,313,X,,,,,,7.0,US,34.233333333333334,-86.25
AL,ALEXANDER/RUSSEL,KALX,ALX,,32,55N,085,58W,198,X,,,,W,,7.0,US,32.916666666666664,-85.96666666666667
AL,ANDALUSIA/OPP AR,K79J,,,31,19N,086,24W,93,X,,,,W,,8.0,US,31.316666666666666,-86.4
AL,ANNISTON,KANB,ANB,,33,35N,085,51W,187,X,,T,,A,,6.0,US,33.583333333333336,-85.85
AL,AUBURN OPELIKA A,KAUO,AUO,,32,37N,085,26W,231,X,,,,,,7.0,US,32.61666666666667,-85.43333333333334
AL,AUBURN UNIV. (AM,KAUB,,,32,36N,085,30W,198,X,,,,,,7.0,US,32.6,-85.5
AL,BAY MINETTE,K1R8,,,30,52N,087,49W,76,X,,,,,,7.0,US,30.866666666666667,-87.81666666666666
AL,BESSEMER,KEKY,,,33,19N,086,56W,213,X,,,,,,7.0,US,33.31666666666667,-86.93333333333334
AL,BIRMINGHAM,KBHM,BHM,72228,33,34N,086,45W,191,X,,T,,A,,4.0,US,33.56666666666667,-86.75
AL,CENTREVILLE WSM,K0A8,,72229,32,56N,087,05W,77,X,,,,,,6.0,US,32.93333333333333,-87.08333333333333
AL,COURTLAND,K9A4,,,34,40N,087,21W,176,X,,,,W,,8.0,US,34.666666666666664,-87.35
AL,CULLMAN/FOLSOM F,K3A1,,,34,16N,086,51W,294,X,,,,W,,7.0,US,34.266666666666666,-86.85
AL,CULLMAN/FOLSOM F,KCMD,,,34,16N,086,51W,294,X,,,,W,,7.0,US,34.266666666666666,-86.85
AL,DECATUR,KDCU,DCU,,34,39N,086,57W,180,X,,,,A,,7.0,US,34.65,-86.95
AL,DEMOPOLIS,KDYA,,,32,28N,087,57W,33,X,,,,,,7.0,US,32.46666666666667,-87.95
AL,DOTHAN,KDHN,DHN,,31,19N,085,27W,113,X,,T,,A,,6.0,US,31.316666666666666,-85.45
AL,ENTERPRISE,KEDN,ETS,,31,18N,085,54W,103,X,,,,,,7.0,US,31.3,-85.9
AL,EUFAULA,KEUF,EUF,,31,57N,085,08W,87,X,,,,W,,8.0,US,31.95,-85.13333333333334
AL,EVERGREEN,KGZH,,,31,25N,087,03W,77,X,,,,A,,7.0,US,31.416666666666668,-87.05
AL,FAIRHOPE,KCQF,,,30,28N,087,53W,21,X,,,,W,,8.0,US,30.466666666666665,-87.88333333333334
AL,FLORALA MUNI,K0J4,,,31,03N,086,19W,96,X,,,,,,8.0,US,31.05,-86.31666666666666
AL,FT PAYNE/ISBELL,K4A9,,,34,28N,085,43W,273,X,,,,W,,7.0,US,34.46666666666667,-85.71666666666667
AL,FT RUCKER/HANCHE,KHEY,,,31,21N,085,39W,95,X,,,,,,8.0,US,31.35,-85.65
AL,FT RUCKER/SHELL,KSXS,,,31,22N,085,51W,120,X,,,,,,7.0,US,31.366666666666667,-85.85
AL,GADSDEN MUNI,KGAD,GAD,,33,58N,086,05W,169,X,,,,W,,7.0,US,33.96666666666667,-86.08333333333333
AL,GREENVILLE,KPRN,,,31,51N,086,37W,137,X,,,,,,8.0,US,31.85,-86.61666666666666
AL,GULF SHORES,KJKA,GUF,,30,17N,087,40W,5,X,,T,,,,7.0,US,30.283333333333335,-87.66666666666667
AL,HALEYVILLE,K1M4,,,34,17N,087,36W,283,X,,,,,,8.0,US,34.28333333333333,-87.6
AL,HEADLAND,K0J6,,,31,22N,085,19W,109,X,,,,,,7.0,US,31.366666666666667,-85.31666666666666
AL,HEADLAND,KHDL,,,31,22N,085,19W,109,X,,,,,,7.0,US,31.366666666666667,-85.31666666666666
AL,HUNTSVILLE,KHSV,HSV,72323,34,39N,086,47W,190,X,,T,,A,,4.0,US,34.65,-86.78333333333333
AL,HUNTSVILLE/MADIS,KMDQ,,,34,52N,086,33W,221,X,,,,W,,8.0,US,34.86666666666667,-86.55
AL,JASPER/WALKER,KJFX,,,33,54N,087,19W,144,X,,,,,,8.0,US,33.9,-87.31666666666666
AL,LOWE AHP/FT. RUC,KLOR,,,31,21N,085,45W,92,X,,,,,,7.0,US,31.35,-85.75
AL,MARION,KA08,,,32,31N,087,23W,64,X,,,,,,8.0,US,32.516666666666666,-87.38333333333334
AL,MAXWELL AFB/MGM,KMXF,MXF,,32,23N,086,22W,47,X,,T,,,,6.0,US,32.38333333333333,-86.36666666666666
AL,MOBILE/BATES,KMOB,MOB,72223,30,41N,088,15W,67,X,X,T,,A,F,3.0,US,30.683333333333334,-88.25
AL,MOBILE/BROOKLEY,KBFM,BFM,,30,37N,088,04W,7,X,,T,,A,,7.0,US,30.616666666666667,-88.06666666666666
AL,MONTGOMERY,KMGM,MGM,72226,32,18N,086,24W,64,X,,U,,A,,4.0,US,32.3,-86.4
AL,MUSCLE SHOAL,KMSL,MSL,,34,45N,087,36W,170,X,,U,,A,,6.0,US,34.75,-87.6
AL,OZARK/CAIRNS AAF,KOZR,OZR,,31,17N,085,43W,90,X,,T,,,,6.0,US,31.283333333333335,-85.71666666666667
AL,PELL CITY,KPLR,PLR,,33,34N,086,15W,145,X,,,,,,7.0,US,33.56666666666667,-86.25
AL,PHI OIL PLAT,KRAM,,,29,03N,088,05W,10,X,,,,H,,8.0,US,29.05,-88.08333333333333
AL,PRATTVILLE,K1A9,,,32,26N,086,31W,65,X,,,,,,7.0,US,32.43333333333333,-86.51666666666667
AL,REDSTONE ARSENAL,KHUA,HUA,,34,41N,086,41W,200,X,,T,,W,,8.0,US,34.68333333333333,-86.68333333333334
AL,SCOTTSBORO,K4A6,,,34,41N,086,00W,191,X,,,,,,8.0,US,34.68333333333333,-86.0
AL,SELMA/CRAIG FLD,KSEM,SEM,,32,21N,086,59W,48,X,,,,,,7.0,US,32.35,-86.98333333333333
AL,SYLACAUGA,KSCD,,,33,10N,086,18W,164,X,,,,,,7.0,US,33.166666666666664,-86.3
AL,TALLADEGA,KASN,ASN,,33,34N,086,03W,159,X,,T,,,,8.0,US,33.56666666666667,-86.05
AL,TROY,KTOI,TOI,,31,51N,086,01W,120,X,,T,,A,,7.0,US,31.85,-86.01666666666667
AL,TUSCALOOSA,KTCL,TCL,,33,13N,087,37W,48,X,,T,,A,,6.0,US,33.21666666666667,-87.61666666666666
AL,VIOSCA KNOLL768,KVOA,,,29,14N,087,47W,53,X,,,,,,9.0,US,29.233333333333334,-87.78333333333333
AR,ARKADELPHIA,KADF,,,34,06N,093,04W,54,X,,T,,,,8.0,US,34.1,-93.06666666666666
AR,BATESVILLE,KBVX,BVX,,35,44N,091,39W,137,X,,,,W,,7.0,US,35.733333333333334,-91.65
AR,BENTON,KSUZ,,,34,35N,092,29W,114,X,,,,W,,7.0,US,34.583333333333336,-92.48333333333333
AR,BENTONVILLE,KH00,,,36,21N,094,13W,395,X,,,,W,,7.0,US,36.35,-94.21666666666667
AR,BENTONVILLE,KVBT,,,36,21N,094,13W,390,X,,,,W,,7.0,US,36.35,-94.21666666666667
AR,BENTONVILLE (NW),KXNA,XNA,,36,17N,094,18W,390,X,,T,,,,6.0,US,36.28333333333333,-94.3
AR,BLYTHEVILLE,KBYH,BYH,,35,58N,089,57W,77,X,,,,A,,7.0,US,35.96666666666667,-89.95
AR,BLYTHEVILLE,KHKA,HKA,,35,56N,089,50W,78,X,,,,A,,7.0,US,35.93333333333333,-89.83333333333333
AR,CAMDEN,KCDH,CDH,,33,37N,092,46W,38,X,,,,,,8.0,US,33.61666666666667,-92.76666666666667
AR,CANTRELL,KCXW,,,35,01N,092,33W,84,X,,,,,,8.0,US,35.016666666666666,-92.55
AR,CLINTON MUNI,KCCA,,,35,36N,092,27W,152,X,,,,,,8.0,US,35.6,-92.45
AR,CORNING,K4M9,,,36,24N,090,39W,86,X,,,,,,8.0,US,36.4,-90.65
AR,DE QUEEN,KDEQ,,,34,03N,094,24W,107,X,,,,A,,7.0,US,34.05,-94.4
AR,EL DORADO,KELD,ELD,,33,13N,092,49W,76,X,,U,,A,,6.0,US,33.21666666666667,-92.81666666666666
AR,FAYETTEVILLE,KFYV,FYV,,36,01N,094,10W,377,X,,T,,A,,4.0,US,36.016666666666666,-94.16666666666667
AR,FLIPPIN (AWOS),KFLP,FLP,,36,17N,092,35W,215,X,,,,W,,7.0,US,36.28333333333333,-92.58333333333333
AR,FORT SMITH,KFSM,FSM,72344,35,20N,094,22W,136,X,,U,,A,,3.0,US,35.333333333333336,-94.36666666666666
AR,HARRISON,KHRO,HRO,,36,16N,093,09W,417,X,,T,,A,,6.0,US,36.266666666666666,-93.15
AR,HOT SPRINGS,KHOT,HOT,,34,29N,093,06W,153,X,,T,,A,,6.0,US,34.483333333333334,-93.1
AR,JONESBORO,KJBR,JBR,,35,50N,090,39W,79,X,,T,,A,,6.0,US,35.833333333333336,-90.65
AR,LITTLE ROCK AFB,KLRF,LRF,,34,55N,092,07W,85,X,,T,,,,1.0,US,34.916666666666664,-92.11666666666666
AR,LITTLE ROCK,KLIT,LIT,,34,44N,092,14W,77,X,,U,,A,,0.0,US,34.733333333333334,-92.23333333333333
AR,MAGNOLIA,KAGO,,,33,14N,093,13W,91,X,,,,,,7.0,US,33.233333333333334,-93.21666666666667
AR,MENA INTERMTN,KMEZ,UMZ,,34,33N,094,12W,320,X,,,,W,,8.0,US,34.55,-94.2
AR,MONTICELLO,KLLQ,,,33,38N,091,45W,86,X,,T,,A,,7.0,US,33.63333333333333,-91.75
AR,MOUNTAIN HOME,KBPK,WMH,,36,22N,092,28W,279,X,,T,,A,,7.0,US,36.36666666666667,-92.46666666666667
AR,MOUNT IDA,KMWT,,,34,33N,093,35W,220,X,,,,A,,7.0,US,34.55,-93.58333333333333
AR,NEWPORT,KM19,,,35,39N,091,10W,72,X,,,,,,8.0,US,35.65,-91.16666666666667
AR,N LITTLE ROCK,KORK,,,34,50N,092,15W,166,X,,,,,,8.0,US,34.833333333333336,-92.25
AR,N. LITTLE ROCK,KLZK,,72340,34,50N,092,16W,173,X,X,,X,,F,8.0,US,34.833333333333336,-92.26666666666667
AR,PINE BLUFF/GRIDR,KPBF,PBF,,34,11N,091,56W,63,X,,T,,A,,6.0,US,34.18333333333333,-91.93333333333334
AR,ROGERS,KROG,ROG,,36,22N,094,06W,407,X,,T,,W,,7.0,US,36.36666666666667,-94.1
AR,RUSSELLVILLE,KRUE,,,35,15N,093,06W,119,X,,,,A,,7.0,US,35.25,-93.1
AR,SEARCY,KSRC,SRC,,35,13N,091,44W,80,X,,,,,,7.0,US,35.21666666666667,-91.73333333333333
AR,SILOAM SPRING,KSLG,SLG,,36,12N,094,29W,361,X,,Z,,,,7.0,US,36.2,-94.48333333333333
AR,SPRINGDALE MUNI,KASG,SPZ,,36,10N,094,07W,410,X,,,,,,7.0,US,36.166666666666664,-94.11666666666666
AR,STUTTGART,KSGT,SGT,,34,36N,091,34W,67,X,,Z,,,,7.0,US,34.6,-91.56666666666666
AR,TEXARKANA,KTXK,TXK,,33,27N,093,59W,118,X,,U,,A,,6.0,US,33.45,-93.98333333333333
AR,WALNUT RIDGE,KARG,ARG,,36,07N,090,55W,82,X,,V,,,,6.0,US,36.11666666666667,-90.91666666666667
AR,W MEMPHIS MUNI,KAWM,AWM,,35,08N,090,14W,64,X,,,,A,,5.0,US,35.13333333333333,-90.23333333333333
AZ,AK-CHIN,KA39,,,32,59N,111,55W,391,X,,,,,,7.0,US,32.983333333333334,-111.91666666666667
AZ,BUCKEYE,KBXK,BXK,,33,25N,112,41W,303,X,,,,,,8.0,US,33.416666666666664,-112.68333333333334
AZ,BULLHEAD CITY,KIFP,IFP,,35,09N,114,34W,210,X,,T,,,,7.0,US,35.15,-114.56666666666666
AZ,CASA GRANDA,KCGZ,CGZ,,32,57N,111,46W,444,X,,,,W,,7.0,US,32.95,-111.76666666666667
AZ,CHANDLER,KCHD,,,33,16N,111,49W,378,X,,,,H,,8.0,US,33.266666666666666,-111.81666666666666
AZ,CHANDLER/MESA,KIWA,AZA,,33,18N,111,39W,420,X,X,T,,,,3.0,US,33.3,-111.65
AZ,COLORADO CITY,KAZC,,,36,58N,113,01W,1476,X,,,,,,8.0,US,36.96666666666667,-113.01666666666667
AZ,COOLIDGE MUNI,KP08,,,32,56N,111,26W,477,X,,,,W,,8.0,US,32.93333333333333,-111.43333333333334
AZ,COTTONWOOD,KP52,,,34,44N,112,02W,1085,X,,,,,,7.0,US,34.733333333333334,-112.03333333333333
AZ,DAVIS/TUCSON,KDMA,DMA,,32,10N,110,53W,804,X,,T,,,,6.0,US,32.166666666666664,-110.88333333333334
AZ,DOUGLAS BISBEE,KDUG,DUG,,31,28N,109,36W,1260,X,,T,,,,6.0,US,31.466666666666665,-109.6
AZ,FLAGSTAFF,KFLG,FLG,,35,08N,111,40W,2134,X,,T,,A,,2.0,US,35.13333333333333,-111.66666666666667
AZ,FORT HUACHUCA,KFHU,FHU,72273,31,35N,110,21W,1424,X,,T,,,,6.0,US,31.583333333333332,-110.35
AZ,GILA BEND (AAF),KGXF,,,32,53N,112,43W,261,X,,,,,,7.0,US,32.88333333333333,-112.71666666666667
AZ,GLENDALE,KGEU,,,33,32N,112,18W,319,X,,,,,,7.0,US,33.53333333333333,-112.3
AZ,GOODYEAR MUNICIP,KGYR,GYR,,33,25N,112,22W,292,X,,,,,,7.0,US,33.416666666666664,-112.36666666666666
AZ,GRAND CANYON,KGCN,GCN,,35,57N,112,09W,1993,X,,T,,A,,4.0,US,35.95,-112.15
AZ,GRAND CANYON/VAL,K40G,,,35,38N,112,09W,1830,X,,,,,,7.0,US,35.63333333333333,-112.15
AZ,KINGMAN,KIGM,IGM,72370,35,15N,113,56W,1045,X,,,,A,,7.0,US,35.25,-113.93333333333334
AZ,LAGUNA (AAF),KLGF,LGF,,32,52N,114,24W,118,X,,,,,,8.0,US,32.86666666666667,-114.4
AZ,LAKE HAVASU CITY,KHII,HII,,34,34N,114,22W,241,X,,,,,,8.0,US,34.56666666666667,-114.36666666666666
AZ,LUKE AFB/GLENDAL,KLUF,LUF,,33,32N,112,22W,333,X,,T,,,,6.0,US,33.53333333333333,-112.36666666666666
AZ,MARANA,KMZJ,MZJ,,32,31N,111,19W,574,X,,,,,,7.0,US,32.516666666666666,-111.31666666666666
AZ,MESA/FALCON FLD,KFFZ,MSC,,33,28N,111,43W,420,X,,,,,,7.0,US,33.46666666666667,-111.71666666666667
AZ,NOGALES,KOLS,OLS,,31,25N,110,51W,1194,X,,T,,A,,6.0,US,31.416666666666668,-110.85
AZ,PAGE,KPGA,PGA,72371,36,55N,111,27W,1310,X,,T,,A,,3.0,US,36.916666666666664,-111.45
AZ,PAYSON,KPAN,PJB,,34,15N,111,20W,1575,X,,,,W,,9.0,US,34.25,-111.33333333333333
AZ,PHOENIX/DEER VLY,KDVT,DVT,,33,41N,112,04W,454,X,,T,,A,,1.0,US,33.68333333333333,-112.06666666666666
AZ,PHOENIX/SKY HRBR,KPHX,PHX,72278,33,26N,112,01W,338,X,,U,,A,,0.0,US,33.43333333333333,-112.01666666666667
AZ,PIONEER AIRFIELD,KALK,,,31,36N,110,26W,1451,X,,,,,,8.0,US,31.6,-110.43333333333334
AZ,PRESCOTT,KPRC,PRC,,34,39N,112,25W,1528,X,,T,,A,,3.0,US,34.65,-112.41666666666667
AZ,SAFFORD,KSAD,SAD,,32,51N,109,38W,937,X,,S,,A,,6.0,US,32.85,-109.63333333333334
AZ,SCOTTSDALE,KSDL,SCF,,33,37N,111,55W,438,X,,T,,A,,7.0,US,33.61666666666667,-111.91666666666667
AZ,SEDONA,KSEZ,SDX,,34,51N,111,47W,1455,X,,T,,,,8.0,US,34.85,-111.78333333333333
AZ,SHOW LOW MUNICIP,KSOW,SOW,,34,16N,110,00W,1954,X,,S,,,,6.0,US,34.266666666666666,-110.0
AZ,SPRINGERVILLE,KJTC,,,34,08N,109,19W,2148,X,,,,,,7.0,US,34.13333333333333,-109.31666666666666
AZ,ST. JOHNS,KSJN,SJN,,34,31N,109,23W,1747,X,,V,,A,,6.0,US,34.516666666666666,-109.38333333333334
AZ,TAYLOR,KTYL,TYZ,,34,27N,110,07W,1748,X,,,,,,8.0,US,34.45,-110.11666666666666
AZ,TUCSON,KTUS,TUS,,32,08N,110,57W,776,X,,U,,A,,2.0,US,32.13333333333333,-110.95
AZ,TUCSON/MARANA,KAVQ,AVW,,32,24N,111,13W,618,X,,,,,,8.0,US,32.4,-111.21666666666667
AZ,TUCSON/RYAN FLD,KRYN,,,32,09N,111,10W,731,X,,,,W,,8.0,US,32.15,-111.16666666666667
AZ,WILLIAMS CLARK,KCMR,,,35,18N,112,12W,2039,X,,,,,,8.0,US,35.3,-112.2
AZ,WINDOW ROCK,KRQE,,,35,39N,109,04W,2056,X,,,,A,,7.0,US,35.65,-109.06666666666666
AZ,WINSLOW,KINW,INW,72374,35,02N,110,43W,1492,X,,U,,A,,4.0,US,35.03333333333333,-110.71666666666667
AZ,YUMA AUX,KNOZ,,,32,32N,114,30W,78,X,,,,,,8.0,US,32.53333333333333,-114.5
AZ,YUMA INTL,KYUM,,72280,32,39N,114,36W,63,X,,T,,,,3.0,US,32.65,-114.6
AZ,YUMA MCAS,KNYL,YUM,,32,39N,114,37W,58,X,,T,,,,6.0,US,32.65,-114.61666666666666
CA,ALAMEDA NAS,KNGZ,,74506,37,46N,122,19W,4,X,,,,,,7.0,US,37.766666666666666,-122.31666666666666
CA,ALTURAS,KAAT,,,41,29N,120,34W,1336,X,,,,A,,7.0,US,41.483333333333334,-120.56666666666666
CA,APPLE VALLEY,KAPV,APV,,34,34N,117,11W,902,X,,,,,,8.0,US,34.56666666666667,-117.18333333333334
CA,ARCATA/EUREKA,KACV,ACV,,40,59N,124,06W,63,X,,T,,A,,6.0,US,40.983333333333334,-124.1
CA,AUBURN MUNI,KAUN,AUN,,38,57N,121,05W,453,X,,,,W,,8.0,US,38.95,-121.08333333333333
CA,AVALON,KAVX,AVX,72292,33,24N,118,25W,482,X,,,,A,,7.0,US,33.4,-118.41666666666667
CA,BAKERSFIELD,KBFL,BFL,72384,35,26N,119,03W,146,X,,T,,A,,6.0,US,35.43333333333333,-119.05
CA,BEALE AFB/MARYSV,KBAB,BAB,,39,08N,121,26W,31,X,,T,,,,6.0,US,39.13333333333333,-121.43333333333334
CA,BEAUMONT,KBUO,,,33,55N,116,58W,692,X,,,,,,7.0,US,33.916666666666664,-116.96666666666667
CA,BICYCLE LAKE,KBYS,BYS,74611,35,17N,116,38W,717,X,,T,,,,6.0,US,35.28333333333333,-116.63333333333334
CA,BIG BEAR CITY,KL35,,,34,16N,116,51W,2062,X,,,,,,8.0,US,34.266666666666666,-116.85
CA,BISHOP,KBIH,BIH,72480,37,22N,118,21W,1252,X,,T,,A,,6.0,US,37.36666666666667,-118.35
CA,BLYTHE,KBLH,BLH,,33,37N,114,43W,119,X,,T,,A,,6.0,US,33.61666666666667,-114.71666666666667
CA,BORREGO SPRINGS,KL08,,,33,16N,116,19W,156,X,,,,,,8.0,US,33.266666666666666,-116.31666666666666
CA,BRIDGEPORT,KO57,,,38,16N,119,13W,1973,X,,,,W,,8.0,US,38.266666666666666,-119.21666666666667
CA,BRIDGEPORT(MCMWT,KBAN,,,38,21N,119,31W,2067,X,,,,,,8.0,US,38.35,-119.51666666666667
CA,BURBANK,KBUR,BUR,72288,34,12N,118,22W,221,X,,T,,A,,6.0,US,34.2,-118.36666666666666
CA,BURNEY,KBNY,,,40,52N,121,40W,957,X,,,,,,7.0,US,40.86666666666667,-121.66666666666667
CA,BYRON,KC83,,,37,50N,121,37W,16,X,,,,,,8.0,US,37.833333333333336,-121.61666666666666
CA,CALEXICO INTL,KCXL,CXL,,32,40N,115,30W,1,X,,,,,,7.0,US,32.666666666666664,-115.5
CA,CAMARILLO,KCMA,,,34,13N,119,06W,20,X,,T,,W,,7.0,US,34.21666666666667,-119.1
CA,CAMPO,KCZZ,,,32,38N,116,28W,805,X,,,,A,,7.0,US,32.63333333333333,-116.46666666666667
CA,CAMP PENDLETON,KNFG,,,33,18N,117,21W,21,X,,T,,,,6.0,US,33.3,-117.35
CA,CARLSBAD,KCRQ,CLD,,33,08N,117,17W,96,X,,T,,A,,6.0,US,33.13333333333333,-117.28333333333333
CA,CEDARVILLE,KO59,,,41,33N,120,10W,1409,X,,,,,,8.0,US,41.55,-120.16666666666667
CA,CHESTER,KO05,,,40,17N,121,14W,1380,X,,,,,,7.0,US,40.28333333333333,-121.23333333333333
CA,CHICO MUNICIPAL,KCIC,CIC,,39,47N,121,51W,72,X,,,,,,7.0,US,39.78333333333333,-121.85
CA,CHINA LAKE (NAF),KNID,,74612,35,41N,117,41W,682,X,,T,,,,4.0,US,35.68333333333333,-117.68333333333334
CA,CHINO,KCNO,CNO,,33,59N,117,37W,191,X,,,,A,,7.0,US,33.983333333333334,-117.61666666666666
CA,COLUMBIA,KO22,,,38,02N,120,25W,637,X,,,,,,7.0,US,38.03333333333333,-120.41666666666667
CA,CONCORD,KCCR,CCR,,38,00N,122,03W,6,X,,,,A,,7.0,US,38.0,-122.05
CA,CORONA MUNI,KAJO,,,33,54N,117,36W,161,X,,,,,,8.0,US,33.9,-117.6
CA,COSTA MESA,KSNA,SNA,,33,40N,117,52W,14,X,,T,,,,6.0,US,33.666666666666664,-117.86666666666666
CA,CRESCENT CITY,KCEC,CEC,,41,47N,124,14W,17,X,,T,,,,6.0,US,41.78333333333333,-124.23333333333333
CA,DAGGETT,KDAG,DAG,,34,51N,116,47W,584,X,,T,,A,,6.0,US,34.85,-116.78333333333333
CA,DAVIS YOLO CNTY,KDWA,,,38,35N,121,51W,28,X,,,,,,8.0,US,38.583333333333336,-121.85
CA,DAVIS,KEDU,,,38,32N,121,47W,20,X,,,,W,,8.0,US,38.53333333333333,-121.78333333333333
CA,DELANO,KDLO,,,35,45N,119,14W,97,X,,,,,,8.0,US,35.75,-119.23333333333333
CA,EDWARDS AFB,KEDW,EDW,72381,34,54N,117,52W,698,X,,T,X,,,3.0,US,34.9,-117.86666666666666
CA,EDWARDS N-AUX,K9L2,,,34,59N,117,52W,697,X,,,,,,8.0,US,34.983333333333334,-117.86666666666666
CA,EL CENTRO NAF,KNJK,NJK,72281,32,49N,115,40W,-15,X,,T,,,,6.0,US,32.81666666666667,-115.66666666666667
CA,EL MONTE,KEMT,EMT,,34,05N,118,02W,84,X,,,,,,7.0,US,34.083333333333336,-118.03333333333333
CA,EMIGRANT GAP,KBLU,BLU,,39,17N,120,42W,1605,X,,,,A,,7.0,US,39.28333333333333,-120.7
CA,EUREKA/MURRAY,KEKA,EKA,72594,40,48N,124,06W,13,X,,,,,F,8.0,US,40.8,-124.1
CA,FALLBROOK AIRPAR,KL18,,,33,21N,117,15W,215,X,,,,,,7.0,US,33.35,-117.25
CA,FORT ORD/FRITZSC,KOAR,OAR,,36,40N,121,46W,41,X,,,,,,8.0,US,36.666666666666664,-121.76666666666667
CA,FORTUNA,KFOT,,,40,33N,124,08W,118,X,,,,,,8.0,US,40.55,-124.13333333333334
CA,FRESNO CHANDLER,KFCH,FCH,,36,43N,119,49W,85,X,,,,,,7.0,US,36.71666666666667,-119.81666666666666
CA,FRESNO,KFAT,FAT,72389,36,47N,119,43W,102,X,,T,,A,,2.0,US,36.78333333333333,-119.71666666666667
CA,FULLERTON,KFUL,FUL,,33,52N,117,59W,23,X,,,,A,,7.0,US,33.86666666666667,-117.98333333333333
CA,GRASS VALLEY,KGOO,,,39,13N,121,00W,950,X,,,,,,8.0,US,39.21666666666667,-121.0
CA,HALF MOON BAY,KHAF,HAF,,37,31N,122,30W,11,X,,,,,,8.0,US,37.516666666666666,-122.5
CA,HANFORD,KHJO,,,36,19N,119,37W,73,X,,,,,,7.0,US,36.31666666666667,-119.61666666666666
CA,HANFORD,KO18,,,36,19N,119,38W,74,X,,,,A,,7.0,US,36.31666666666667,-119.63333333333334
CA,HAWTHORNE,KHHR,HHR,,33,55N,118,20W,21,X,,,,A,,7.0,US,33.916666666666664,-118.33333333333333
CA,HAYWARD,KHWD,HWD,,37,40N,122,07W,9,X,,,,A,,7.0,US,37.666666666666664,-122.11666666666666
CA,HEALDSBURG,KHES,,,38,39N,122,54W,85,X,,,,W,,8.0,US,38.65,-122.9
CA,HEMET,KHMT,HMT,,33,44N,117,01W,462,X,,,,,,7.0,US,33.733333333333334,-117.01666666666667
CA,HOLLISTER MUNI,KCVH,HLI,,36,54N,121,25W,68,X,,,,W,,8.0,US,36.9,-121.41666666666667
CA,HUNTER LIGGET,KHGT,,,36,00N,121,14W,310,X,,,,,,7.0,US,36.0,-121.23333333333333
CA,IMPERIAL BEACH,KNRS,NRS,,32,34N,117,07W,15,X,,,,,,7.0,US,32.56666666666667,-117.11666666666666
CA,IMPERIAL,KIPL,IPL,,32,50N,115,35W,-16,X,,T,,A,,6.0,US,32.833333333333336,-115.58333333333333
CA,INYOKERN,KIYK,IYK,,35,40N,117,49W,746,X,,,,,,7.0,US,35.666666666666664,-117.81666666666666
CA,JACKSON,KJAQ,,,38,22N,120,48W,518,X,,,,,,7.0,US,38.36666666666667,-120.8
CA,LANCASTER/FOX,KWJF,WJF,,34,44N,118,13W,712,X,,T,,A,,6.0,US,34.733333333333334,-118.21666666666667
CA,LA VERNE/BRACKET,KPOC,POC,,34,06N,117,46W,304,X,,,,,,7.0,US,34.1,-117.76666666666667
CA,LA / WHITEMAN,KWHP,WHP,,34,15N,118,25W,302,X,,,,W,,8.0,US,34.25,-118.41666666666667
CA,LEMOORE NAS/REEV,KNLC,NLC,74702,36,19N,119,57W,69,X,,T,Z,,,6.0,US,36.31666666666667,-119.95
CA,LINCOLN,KLHM,,,38,55N,121,21W,36,X,,,,,,8.0,US,38.916666666666664,-121.35
CA,LITTLE RIVER,KLLR,,,39,16N,123,45W,175,X,,,,W,,8.0,US,39.266666666666666,-123.75
CA,LIVERMORE,KLVK,LVK,,37,42N,121,49W,120,X,,T,,A,,7.0,US,37.7,-121.81666666666666
CA,LOMPOC,KLPC,LPC,,34,40N,120,28W,26,X,,,Z,W,,7.0,US,34.666666666666664,-120.46666666666667
CA,LONG BEACH,KLGB,LGB,72297,33,49N,118,09W,10,X,,T,,A,,6.0,US,33.81666666666667,-118.15
CA,LOS ALAMITOS AAF,KSLI,,,33,47N,118,02W,8,X,,T,,,,7.0,US,33.78333333333333,-118.03333333333333
CA,LOS ANGELES,KCQT,,,34,01N,118,17W,51,X,,,,A,,7.0,US,34.016666666666666,-118.28333333333333
CA,LOS ANGELES,KLAX,LAX,72295,33,56N,118,23W,30,X,,U,,A,,0.0,US,33.93333333333333,-118.38333333333334
CA,MADERA,KMAE,MAE,,36,59N,120,07W,77,X,,,,A,,7.0,US,36.983333333333334,-120.11666666666666
CA,MAMMOTH/JUNE LAK,KMMH,MMH,,37,37N,118,50W,2167,X,,T,,,,7.0,US,37.61666666666667,-118.83333333333333
CA,MARYSVILLE,KMYV,MYV,,39,06N,121,34W,18,X,,,,A,,7.0,US,39.1,-121.56666666666666
CA,MATHER FIELD,KMHR,MHR,,38,33N,121,17W,30,X,,T,,,,7.0,US,38.55,-121.28333333333333
CA,MCCLELLAN AFB,KMCC,MCC,,38,40N,121,24W,21,X,,T,,,,7.0,US,38.666666666666664,-121.4
CA,MERCED/CASTLE AF,KMER,MER,72481,37,23N,120,34W,58,X,,T,,,,8.0,US,37.38333333333333,-120.56666666666666
CA,MERCED,KMCE,MCE,,37,17N,120,30W,49,X,,T,,A,,6.0,US,37.28333333333333,-120.5
CA,MIRAMAR NAS/SAN,KNKX,NKX,72293,32,52N,117,08W,138,X,X,T,X,,,5.0,US,32.86666666666667,-117.13333333333334
CA,MODESTO,KMOD,MOD,,37,37N,120,57W,25,X,,V,,A,,6.0,US,37.61666666666667,-120.95
CA,MOFFETT NAS/MTN,KNUQ,NUQ,74509,37,24N,122,03W,9,X,,,,,,7.0,US,37.4,-122.05
CA,MOJAVE,KMHV,MHV,,35,04N,118,09W,841,X,,,,,,7.0,US,35.06666666666667,-118.15
CA,MONTAGUE/SISKIYO,KSIY,SIY,,41,46N,122,28W,807,X,,,,A,,7.0,US,41.766666666666666,-122.46666666666667
CA,MONTEREY,KMRY,MRY,,36,35N,121,51W,51,X,,T,,A,,2.0,US,36.583333333333336,-121.85
CA,MOUNT SHASTA,KMHS,,,41,19N,122,19W,1080,X,,,,A,,7.0,US,41.31666666666667,-122.31666666666666
CA,MOUNT WILSON,KMWS,,72289,34,14N,118,03W,1745,X,,,,,,7.0,US,34.233333333333334,-118.05
CA,MURRIETA/TEMECUL,KF70,,,33,34N,117,08W,406,X,,,,W,,7.0,US,33.56666666666667,-117.13333333333334
CA,NAPA,KAPC,APC,,38,12N,122,17W,5,X,,T,,A,,7.0,US,38.2,-122.28333333333333
CA,NEEDLES,KEED,EED,,34,46N,114,37W,271,X,,U,,,,6.0,US,34.766666666666666,-114.61666666666666
CA,NEWHALL,K3A6,,,34,22N,118,34W,427,X,,,,,,7.0,US,34.36666666666667,-118.56666666666666
CA,NORTH ISLAND NAS,KNZY,NZY,,32,42N,117,13W,4,X,,T,,,,6.0,US,32.7,-117.21666666666667
CA,NOVATO/GNOSS FLD,KDVO,NOT,,38,09N,122,33W,1,X,,,,A,,7.0,US,38.15,-122.55
CA,OAKLAND,KOAK,OAK,72493,37,43N,122,14W,3,X,,U,X,A,,1.0,US,37.71666666666667,-122.23333333333333
CA,OCEANO CNTY,KL52,,,35,06N,120,37W,3,X,,,,,,8.0,US,35.1,-120.61666666666666
CA,OCEANSIDE,KOKB,OCN,,33,13N,117,21W,7,X,,,,A,,7.0,US,33.21666666666667,-117.35
CA,OCEANSIDE/RED-B,KNXF,,,33,17N,117,27W,28,X,,,,,,8.0,US,33.28333333333333,-117.45
CA,ONTARIO,KONT,ONT,,34,03N,117,35W,279,X,,T,,A,,1.0,US,34.05,-117.58333333333333
CA,OROVILLE,KOVE,OVE,,39,30N,121,37W,56,X,,,,A,,7.0,US,39.5,-121.61666666666666
CA,OXNARD,KOXR,OXR,,34,12N,119,12W,12,X,,T,,A,,7.0,US,34.2,-119.2
CA,PALMDALE,KGXA,,,34,34N,117,40W,927,X,,,,W,,8.0,US,34.56666666666667,-117.66666666666667
CA,PALMDALE,KPMD,PMD,,34,38N,118,05W,764,X,,T,,A,,6.0,US,34.63333333333333,-118.08333333333333
CA,PALM SPRINGS,KPSP,PSP,,33,49N,116,30W,123,X,,T,,A,,3.0,US,33.81666666666667,-116.5
CA,PALO ALTO,KPAO,PAO,,37,28N,122,07W,2,X,,,,,,7.0,US,37.46666666666667,-122.11666666666666
CA,PASO ROBLES,KPRB,PRB,,35,40N,120,38W,249,X,,T,,A,,6.0,US,35.666666666666664,-120.63333333333334
CA,PETALUMA,KO69,,,38,15N,122,36W,26,X,,,,,,7.0,US,38.25,-122.6
CA,PLACERVILLE,KPVF,PVF,,38,43N,120,45W,788,X,,,,,,8.0,US,38.71666666666667,-120.75
CA,POINT MUGU NAS,KNTD,NTD,72391,34,07N,119,07W,1,X,,T,,,,6.0,US,34.11666666666667,-119.11666666666666
CA,PORTERVILLE,KPTV,PTV,,36,01N,119,04W,132,X,,,,W,,7.0,US,36.016666666666666,-119.06666666666666
CA,PT. PIEDRAS BLAN,K87Q,,72390,35,40N,121,17W,21,X,,Z,,A,,7.0,US,35.666666666666664,-121.28333333333333
CA,RAMONA,KRNM,,,33,02N,116,55W,423,X,,,,A,,7.0,US,33.03333333333333,-116.91666666666667
CA,RED BLUFF,KRBL,RBL,72591,40,09N,122,15W,107,X,,U,,A,,6.0,US,40.15,-122.25
CA,REDDING,KRDD,RDD,72592,40,31N,122,18W,152,X,,T,,A,,3.0,US,40.516666666666666,-122.3
CA,REDLANDS,KREI,,,34,05N,117,09W,480,X,,,,W,,8.0,US,34.083333333333336,-117.15
CA,REEDLEY,KO32,,,36,40N,119,27W,117,X,,,,,,8.0,US,36.666666666666664,-119.45
CA,RIO VISTA,KO88,,,38,12N,121,42W,7,X,,,,W,,8.0,US,38.2,-121.7
CA,RIVERSIDE,KRAL,RAL,,33,57N,117,27W,254,X,,S,,A,,6.0,US,33.95,-117.45
CA,RIVERSIDE/MARCH,KRIV,RIV,72286,33,52N,117,14W,454,X,,T,,,,7.0,US,33.86666666666667,-117.23333333333333
CA,SACRAMENTO,KSAC,SAC,,38,30N,121,30W,5,X,,U,,A,,2.0,US,38.5,-121.5
CA,SACRAMENTO/METRO,KSMF,SMF,,38,42N,121,36W,7,X,,T,,A,,6.0,US,38.7,-121.6
CA,SALINAS,KSNS,SNS,,36,40N,121,36W,20,X,,U,,A,,6.0,US,36.666666666666664,-121.6
CA,SAN ANDREAS,KCPU,,,38,09N,120,39W,400,X,,,,,,8.0,US,38.15,-120.65
CA,SAN BERNARDINO,KSBD,SBD,,34,05N,117,15W,353,X,,T,,,,8.0,US,34.083333333333336,-117.25
CA,SAN CARLOS AIRPO,KSQL,SQL,,37,31N,122,15W,1,X,,,,,,7.0,US,37.516666666666666,-122.25
CA,SAN CLEMENTE IS.,KNUC,,,33,01N,118,34W,52,X,,T,,W,,7.0,US,33.016666666666666,-118.56666666666666
CA,SANDBERG,KSDB,,72383,34,45N,118,43W,1377,X,,,,A,,7.0,US,34.75,-118.71666666666667
CA,SAN DIEGO/BROWN,KSDM,SDM,,32,35N,117,00W,161,X,,,,A,,7.0,US,32.583333333333336,-117.0
CA,SAN DIEGO,KSAN,SAN,72290,32,44N,117,11W,3,X,,T,,A,,2.0,US,32.733333333333334,-117.18333333333334
CA,SAN DIEGO/MNTGMY,KMYF,MYF,,32,49N,117,08W,128,X,,,,A,,7.0,US,32.81666666666667,-117.13333333333334
CA,SAN DIEGO/SANTEE,KSEE,SEE,,32,49N,116,58W,113,X,,,,,,7.0,US,32.81666666666667,-116.96666666666667
CA,SAN FRANCISCO,KSFO,SFO,72494,37,37N,122,22W,2,X,,T,,A,,0.0,US,37.61666666666667,-122.36666666666666
CA,SAN JOSE,KSJC,SJC,,37,22N,121,55W,13,X,,T,,A,,6.0,US,37.36666666666667,-121.91666666666667
CA,SAN JOSE/REID,KRHV,RHV,,37,20N,121,49W,37,X,,,,,,7.0,US,37.333333333333336,-121.81666666666666
CA,SAN LUIS OBISPO,KSBP,SBP,,35,14N,120,38W,52,X,,T,,A,,6.0,US,35.233333333333334,-120.63333333333334
CA,SAN MARTIN,KE16,,,37,05N,121,36W,84,X,,,,W,,8.0,US,37.083333333333336,-121.6
CA,SAN NICOLAS ISLA,KNSI,,72291,33,14N,119,27W,161,X,,,,,,7.0,US,33.233333333333334,-119.45
CA,SANTA BARBARA,KSBA,SBA,,34,26N,119,51W,2,X,,T,,A,,6.0,US,34.43333333333333,-119.85
CA,SANTA MARIA,KSMX,SMX,72394,34,54N,120,27W,73,X,,T,,A,,6.0,US,34.9,-120.45
CA,SANTA MONICA,KSMO,SMO,,34,01N,118,27W,56,X,,T,,A,,7.0,US,34.016666666666666,-118.45
CA,SANTA ROSA,KSTS,STS,,38,30N,122,49W,35,X,,T,,A,,6.0,US,38.5,-122.81666666666666
CA,SANTA YNEZ,KIZA,SQA,,34,36N,120,04W,200,X,,,,,,7.0,US,34.6,-120.06666666666666
CA,SHELTER COVE,KO87,,,40,01N,124,04W,21,X,,,,,,7.0,US,40.016666666666666,-124.06666666666666
CA,SOUTH LAKE TAHOE,KTVL,TVL,,38,54N,120,00W,1907,X,,T,,A,,6.0,US,38.9,-120.0
CA,STOCKTON,KSCK,SCK,72492,37,53N,121,13W,8,X,,T,,A,,6.0,US,37.88333333333333,-121.21666666666667
CA,SUSANVILLE MUNI,KSVE,SVE,,40,22N,120,34W,1263,X,,,,,,7.0,US,40.36666666666667,-120.56666666666666
CA,TEHACHAPI,KTSP,TSP,,35,08N,118,26W,1209,X,,,,,,8.0,US,35.13333333333333,-118.43333333333334
CA,THERMAL/PALM SPG,KTRM,TRM,,33,38N,116,10W,-39,X,,U,,A,,6.0,US,33.63333333333333,-116.16666666666667
CA,TORRANCE MUNICIP,KTOA,TOA,,33,48N,118,20W,30,X,,,,,,7.0,US,33.8,-118.33333333333333
CA,TRACY,KTCY,,,37,41N,121,26W,51,X,,,,,,7.0,US,37.68333333333333,-121.43333333333334
CA,TRAVIS AFB/FAIRF,KSUU,SUU,74516,38,16N,121,56W,9,X,,T,,,,6.0,US,38.266666666666666,-121.93333333333334
CA,TRINITY CENTER,KO86,,,40,59N,122,42W,729,X,,,,W,,8.0,US,40.983333333333334,-122.7
CA,TRUCKEE TAHOE,KTRK,TKF,,39,19N,120,08W,1800,X,,T,,,,6.0,US,39.31666666666667,-120.13333333333334
CA,TWENTYNINE PALMS,KNXP,,69015,34,17N,116,08W,610,X,,T,,,,6.0,US,34.28333333333333,-116.13333333333334
CA,UKIAH,KUKI,UKI,,39,07N,123,12W,183,X,,T,,A,,6.0,US,39.11666666666667,-123.2
CA,UPLAND,KCCB,CCB,,34,07N,117,41W,440,X,,,,,,8.0,US,34.11666666666667,-117.68333333333334
CA,VACAVILLE,KVCB,,,38,23N,121,57W,30,X,,,,A,,7.0,US,38.38333333333333,-121.95
CA,VANDENBERG AFB,KVBG,VBG,72393,34,44N,120,35W,96,X,,T,X,,,3.0,US,34.733333333333334,-120.58333333333333
CA,VANDENBERG RANGE,KXVW,,,34,43N,120,34W,100,X,,,,,,7.0,US,34.71666666666667,-120.56666666666666
CA,VAN NUYS,KVNY,VNY,,34,13N,118,29W,241,X,,T,,A,,6.0,US,34.21666666666667,-118.48333333333333
CA,VICTORVILLE,KVCV,VCV,,34,35N,117,23W,871,X,,,,,,8.0,US,34.583333333333336,-117.38333333333334
CA,VISALIA MUNI,KVIS,VIS,,36,19N,119,24W,92,X,,T,,W,,7.0,US,36.31666666666667,-119.4
CA,WATSONVILLE,KWVI,WVI,,36,56N,121,47W,47,X,,,,A,,7.0,US,36.93333333333333,-121.78333333333333
CA,WEAVERVILLE,KO54,,,40,45N,122,55W,693,X,,,,,,8.0,US,40.75,-122.91666666666667
CO,AKRON,KAKO,AKO,,40,10N,103,13W,1431,X,,V,,A,,4.0,US,40.166666666666664,-103.21666666666667
CO,ALAMOSA,KALS,ALS,72462,37,26N,105,52W,2299,X,,U,,A,,6.0,US,37.43333333333333,-105.86666666666666
CO,ASPEN,KASE,ASE,,39,14N,106,52W,2384,X,,T,,A,,4.0,US,39.233333333333334,-106.86666666666666
CO,BALD MOUNTAIN,K7BM,,,38,47N,106,13W,2996,X,,,,,,8.0,US,38.78333333333333,-106.21666666666667
CO,BERTHOUD PASS,K0CO,,,39,48N,105,46W,3804,X,,,,W,,8.0,US,39.8,-105.76666666666667
CO,BOULDER MUNI,KBDU,WBU,,40,02N,105,14W,1614,X,,,,W,,8.0,US,40.03333333333333,-105.23333333333333
CO,BROOMFIELD/JEFFC,KBJC,BJC,,39,54N,105,06W,1694,X,,T,,,,1.0,US,39.9,-105.1
CO,BUCKLEY ANGB/DEN,KBKF,BFK,,39,43N,104,45W,1703,X,,T,,,,2.0,US,39.71666666666667,-104.75
CO,BUENA VISTA,KAEJ,,,38,49N,106,07W,2420,X,,,,W,,8.0,US,38.81666666666667,-106.11666666666666
CO,BURLINGTON,KITR,,,39,14N,102,17W,1285,X,,,,A,,7.0,US,39.233333333333334,-102.28333333333333
CO,CANON CITY,K1V6,,,38,26N,105,06W,1658,X,,,,W,,8.0,US,38.43333333333333,-105.1
CO,CHEYENNE MOUNTAI,KCWN,,,38,45N,104,51W,2040,X,,,,,,8.0,US,38.75,-104.85
CO,COLORADO SPRINGS,KCOS,COS,72466,38,49N,104,41W,1886,X,,T,,A,,3.0,US,38.81666666666667,-104.68333333333334
CO,CORONA PASS,KCRV,,,40,03N,105,35W,3538,X,,,,W,,7.0,US,40.05,-105.58333333333333
CO,CORTEZ,KCEZ,CEZ,,37,18N,108,38W,1801,X,,,,A,,7.0,US,37.3,-108.63333333333334
CO,CO SPNGS MEADOW,KFLY,,,38,57N,104,34W,2096,X,,,,A,,7.0,US,38.95,-104.56666666666666
CO,CRAIG,KCAG,CIG,72570,40,30N,107,31W,1888,X,,,,A,,4.0,US,40.5,-107.51666666666667
CO,DAKOTA HILL,KC99,,,39,52N,105,33W,3334,X,,,,,,7.0,US,39.86666666666667,-105.55
CO,DEL NORTE,KRCV,,,37,43N,106,21W,2418,X,,,,,,7.0,US,37.71666666666667,-106.35
CO,DELTA/BLAKE FLD,KAJZ,,,38,47N,108,04W,1583,X,,,,W,,8.0,US,38.78333333333333,-108.06666666666666
CO,DENVER AIR SPACE,KCFO,,,39,47N,104,33W,1672,X,,,,,,8.0,US,39.78333333333333,-104.55
CO,DENVER/ARAPAHOE,KAPA,APA,,39,34N,104,51W,1791,X,,T,,A,,4.0,US,39.56666666666667,-104.85
CO,DENVER (DIA),KDEN,DEN,72565,39,51N,104,39W,1656,X,,U,,A,,0.0,US,39.85,-104.65
CO,DENVER F. RANGE,KFTG,,,39,47N,104,33W,1672,X,X,,,,,8.0,US,39.78333333333333,-104.55
CO,DURANGO,KDRO,DRO,,37,09N,107,46W,2021,X,,T,,A,,4.0,US,37.15,-107.76666666666667
CO,EAGLE CO. REGION,KEGE,EGE,,39,38N,106,55W,1993,X,,T,,,,6.0,US,39.63333333333333,-106.91666666666667
CO,ELLICOTT-B AFA,KABH,,,38,45N,104,18W,1838,X,,,,W,,8.0,US,38.75,-104.3
CO,ERIE MUNI,KEIK,,,40,01N,105,03W,1551,X,,,,W,,8.0,US,40.016666666666666,-105.05
CO,FLAGLER,KFLA,,,39,17N,103,04W,1507,X,,,,W,,9.0,US,39.28333333333333,-103.06666666666666
CO,FORT CARSON,KFCS,FCS,72468,38,40N,104,46W,1789,X,,T,,,,6.0,US,38.666666666666664,-104.76666666666667
CO,FORT MORGAN,KFMM,,,40,20N,103,48W,1376,X,,,,W,,8.0,US,40.333333333333336,-103.8
CO,FT COLLINS/LOVEL,KFNL,FNL,,40,27N,105,01W,1529,X,,,,W,,7.0,US,40.45,-105.01666666666667
CO,GRANBY/GRAND CO,KGNB,,,40,05N,105,55W,2500,X,,,,W,,8.0,US,40.083333333333336,-105.91666666666667
CO,GRAND JUNCTION,KGJT,GJT,72476,39,08N,108,32W,1475,X,,T,X,A,F,2.0,US,39.13333333333333,-108.53333333333333
CO,GREELEY/WELD,KGXY,GXY,,40,26N,104,37W,1420,X,,,,W,,4.0,US,40.43333333333333,-104.61666666666666
CO,GUNNISON,KGUC,GUC,,38,31N,106,56W,2337,X,,T,,,,6.0,US,38.516666666666666,-106.93333333333334
CO,HAYDEN/YAMPA,KHDN,HDN,,40,29N,107,13W,2012,X,,T,,W,,6.0,US,40.483333333333334,-107.21666666666667
CO,HOLYOKE,KHEQ,,,40,34N,102,17W,1136,X,,,,W,,8.0,US,40.56666666666667,-102.28333333333333
CO,JULIET MADIS,K1JW,,,40,58N,103,12W,1382,X,,,,,,8.0,US,40.96666666666667,-103.2
CO,KIRK,K72C,,,39,36N,102,34W,1280,X,,,,W,,9.0,US,39.6,-102.56666666666666
CO,KREMMLING AWOS,K20V,,,40,03N,106,22W,2259,X,,,,W,,7.0,US,40.05,-106.36666666666666
CO,LA JUNTA,KLHX,,,38,03N,103,31W,1289,X,,,,A,,7.0,US,38.05,-103.51666666666667
CO,LAMAR,KLAA,LAA,,38,04N,102,41W,1129,X,,V,,A,,4.0,US,38.06666666666667,-102.68333333333334
CO,LA VETA PASS,KVTP,,,37,30N,105,10W,3086,X,,,,W,,7.0,US,37.5,-105.16666666666667
CO,LEADVILLE,KLXV,LXV,,39,14N,106,19W,3027,X,,,,A,,7.0,US,39.233333333333334,-106.31666666666666
CO,LIMA MADIS,K1LW,,,40,55N,103,42W,1514,X,,,,,,8.0,US,40.916666666666664,-103.7
CO,LIMON,KLIC,LIC,,39,16N,103,40W,1635,X,,,,A,,4.0,US,39.266666666666666,-103.66666666666667
CO,LONGMONT/VBRAND,KLMO,,,40,10N,105,10W,1535,X,,,,W,,8.0,US,40.166666666666664,-105.16666666666667
CO,MEEKER,KEEO,,,40,03N,107,53W,1957,X,,,,A,,7.0,US,40.05,-107.88333333333334
CO,MIKE MADIS,K1MW,,,40,42N,103,29W,1338,X,,,,,,8.0,US,40.7,-103.48333333333333
CO,MONARCH PASS,KMYP,,,38,29N,106,19W,3629,X,,,,W,,7.0,US,38.483333333333334,-106.31666666666666
CO,MONTROSE,KMTJ,MTJ,,38,30N,107,54W,1755,X,,T,,A,,6.0,US,38.5,-107.9
CO,MONUMENT/ELBERT,KMNH,,,39,13N,104,39W,2152,X,,,,W,,7.0,US,39.21666666666667,-104.65
CO,MT WERNER SBS,K3MW,,,40,27N,106,45W,3241,X,,,,,,7.0,US,40.45,-106.75
CO,NOVEMBER MADIS,K1NW,,,40,38N,103,50W,1461,X,,,,,,8.0,US,40.63333333333333,-103.83333333333333
CO,NUCLA/HOPKINS F,KAIB,,,38,14N,108,34W,1811,X,,,,,,7.0,US,38.233333333333334,-108.56666666666666
CO,OSCAR MADIS,K1OW,,,40,53N,104,00W,1650,X,,,,,,8.0,US,40.88333333333333,-104.0
CO,PAGOSA SPRINGS,KPSO,PGO,,37,17N,107,03W,2332,X,,,,W,,8.0,US,37.28333333333333,-107.05
CO,PUEBLO,KPUB,PUB,72464,38,17N,104,30W,1441,X,,U,,,F,3.0,US,38.28333333333333,-104.5
CO,RANGELY,K4V0,,,40,06N,108,46W,1602,X,,,,W,,8.0,US,40.1,-108.76666666666667
CO,RED CLIFF PASS,KCCU,,,39,29N,106,09W,3672,X,,,,W,,7.0,US,39.483333333333334,-106.15
CO,RIFLE,KRIL,RIL,,39,32N,107,44W,1683,X,,T,,A,,7.0,US,39.53333333333333,-107.73333333333333
CO,SAGUACHE MUNI,K04V,,,38,06N,106,10W,2389,X,,,,W,,8.0,US,38.1,-106.16666666666667
CO,SALIDA,KANK,SLT,,38,32N,106,03W,2293,X,,,,W,,8.0,US,38.53333333333333,-106.05
CO,SCHRIEVER AFB,KSHM,,,38,48N,104,31W,1900,X,,,,,,7.0,US,38.8,-104.51666666666667
CO,SPRINGFIELD,KSPD,,,37,17N,102,37W,1340,X,,,,A,,7.0,US,37.28333333333333,-102.61666666666666
CO,STEAMBOAT SPRING,KSBS,SBS,,40,31N,106,52W,2097,X,,,,W,,7.0,US,40.516666666666666,-106.86666666666666
CO,STERLING,KSTK,STK,,40,37N,103,16W,1228,X,,,,W,,8.0,US,40.61666666666667,-103.26666666666667
CO,STRATTON,KSTR,,,39,18N,102,36W,1345,X,,,,W,,9.0,US,39.3,-102.6
CO,SUNLIGHT,K5SM,,,39,26N,107,23W,3229,X,,,,,,8.0,US,39.43333333333333,-107.38333333333334
CO,TELLURIDE REGION,KTEX,TEX,,37,57N,107,54W,2760,X,,T,,,,7.0,US,37.95,-107.9
CO,TRINIDAD/ANIMAS,KTAD,TAD,,37,16N,104,20W,1751,X,,,,,,7.0,US,37.266666666666666,-104.33333333333333
CO,USAF ACADEMY/COS,KAFF,AFF,74531,38,58N,104,49W,2003,X,,T,,,,4.0,US,38.96666666666667,-104.81666666666666
CO,WALDEN,K33V,,,40,45N,106,17W,2486,X,,,,W,,8.0,US,40.75,-106.28333333333333
CO,WALSENBURG,K4V1,,,37,42N,104,47W,1847,X,,,,,,7.0,US,37.7,-104.78333333333333
CO,WALTON PEAK,KC07,,,40,21N,106,42W,3224,X,,,,,,7.0,US,40.35,-106.7
CO,WILKERSON PASS,K4BM,,,39,03N,105,31W,3432,X,,,,,,8.0,US,39.05,-105.51666666666667
CO,WOLF CREEK PASS,KCPW,,,37,27N,106,48W,3570,X,,,,W,,7.0,US,37.45,-106.8
CO,WRAY,K2V5,,,40,06N,102,15W,1117,X,,,,W,,8.0,US,40.1,-102.25
CO,YUMA,K2V6,,,40,06N,102,43W,1257,X,,,,W,,9.0,US,40.1,-102.71666666666667
CT,BRIDGEPORT,KBDR,BDR,72504,41,10N,073,08W,5,X,,T,,A,,3.0,US,41.166666666666664,-73.13333333333334
CT,CHESTER,KSNC,,,41,23N,072,30W,114,X,,,,A,,7.0,US,41.38333333333333,-72.5
CT,DANBURY,KDXR,DXR,,41,22N,073,29W,138,X,,,,A,,7.0,US,41.36666666666667,-73.48333333333333
CT,GROTON/NEW LONDO,KGON,GON,,41,20N,072,03W,2,X,,T,,A,,7.0,US,41.333333333333336,-72.05
CT,HARTFORD/BRAINAR,KHFD,HFD,,41,44N,072,39W,3,X,,,,A,,4.0,US,41.733333333333334,-72.65
CT,MERIDEN,KMMK,,,41,31N,072,50W,30,X,,,,A,,7.0,US,41.516666666666666,-72.83333333333333
CT,NEW HAVEN/TWEED,KHVN,HVN,,41,16N,072,53W,4,X,,,,A,,7.0,US,41.266666666666666,-72.88333333333334
CT,OXFORD/WATERBURY,KOXC,OXC,,41,28N,073,08W,211,X,,,,W,,7.0,US,41.46666666666667,-73.13333333333334
CT,WILLIMANTIC,KIJD,,,41,45N,072,11W,73,X,,,,A,,7.0,US,41.75,-72.18333333333334
CT,WINDSOR LOCKS,KBDL,BDL,72508,41,56N,072,41W,52,X,,U,,A,,6.0,US,41.93333333333333,-72.68333333333334
DE,DOVER AFB,KDOV,DOV,,39,07N,075,28W,6,X,,T,,,,6.0,US,39.11666666666667,-75.46666666666667
DE,DOVER/CHESWOLD,K33N,,,39,13N,075,36W,17,X,,,,,,8.0,US,39.21666666666667,-75.6
DE,GEORGETOWN,KGED,GED,,38,41N,075,22W,15,X,,,,A,,7.0,US,38.68333333333333,-75.36666666666666
DE,WILMINGTON,KILG,ILG,,39,40N,075,36W,22,X,,T,,A,,4.0,US,39.666666666666664,-75.6
FL,APALACHICOLA,KAAF,AAF,72220,29,44N,085,02W,5,X,,,,A,,7.0,US,29.733333333333334,-85.03333333333333
FL,BARTOW MUNICIPAL,KBOW,BOW,,27,56N,081,46W,38,X,,,,,,7.0,US,27.933333333333334,-81.76666666666667
FL,BOCA RATON,KBCT,BCT,,26,23N,080,06W,3,X,,,,,,7.0,US,26.383333333333333,-80.1
FL,BONIFAY TRI-CTY,K1J0,,,30,51N,085,36W,26,X,,,,,,8.0,US,30.85,-85.6
FL,BONIFAY TRI-CTY,KBCR,,,30,51N,085,36W,26,X,,,,,,8.0,US,30.85,-85.6
FL,BROOKSVILLE,KBKV,,,28,28N,082,27W,21,X,,,,A,,7.0,US,28.466666666666665,-82.45
FL,CAPE CANAVERAL,KXMR,,,28,28N,080,34W,5,X,,,X,,,8.0,US,28.466666666666665,-80.56666666666666
FL,CECIL FIELD NAS,KNZC,,,30,13N,081,52W,25,X,,,,,,7.0,US,30.216666666666665,-81.86666666666666
FL,CLEARWATER,KCLW,CLW,,27,59N,082,45W,21,X,,,,,,7.0,US,27.983333333333334,-82.75
FL,CLEWISTOWN,K2IS,,,26,44N,081,03W,5,X,,,,,,7.0,US,26.733333333333334,-81.05
FL,CRESTVIEW,KCEW,CEW,,30,47N,086,31W,47,X,,V,,A,,6.0,US,30.783333333333335,-86.51666666666667
FL,CROSS CITY,KCTY,CTY,72212,29,38N,083,06W,12,X,,V,,A,,6.0,US,29.633333333333333,-83.1
FL,CRYSTAL RIVER,KCGC,,,28,52N,082,34W,3,X,,,,,,8.0,US,28.866666666666667,-82.56666666666666
FL,DAYTONA BEACH,KDAB,DAB,,29,11N,081,04W,8,X,,T,,A,,3.0,US,29.183333333333334,-81.06666666666666
FL,DE FUNIAK SPRNGS,K54J,,,30,44N,086,09W,87,X,,,,W,,7.0,US,30.733333333333334,-86.15
FL,DELAND,KDED,,,29,04N,081,17W,21,X,,,,W,,7.0,US,29.066666666666666,-81.28333333333333
FL,DESTIN,KDTS,DSI,,30,24N,086,28W,5,X,,,,A,,7.0,US,30.4,-86.46666666666667
FL,DUKE FLD/EGLIN,KEGI,EGI,,30,39N,086,31W,59,X,,T,,,,7.0,US,30.65,-86.51666666666667
FL,EGLIN AFB/VALPAR,KVPS,VPS,72221,30,28N,086,31W,21,X,,T,,,,6.0,US,30.466666666666665,-86.51666666666667
FL,EVERGLADES CITY,KEGC,,,25,51N,081,23W,2,X,,,,W,,7.0,US,25.85,-81.38333333333334
FL,FERNANDINA BEACH,KFHB,,,30,37N,081,28W,4,X,,,,W,,7.0,US,30.616666666666667,-81.46666666666667
FL,FLAGLER CNTY,KFIN,,,29,28N,081,12W,10,X,,,,,,8.0,US,29.466666666666665,-81.2
FL,FLAMINGO/MONROE,KFLM,,,25,08N,080,55W,2,X,,,,W,,7.0,US,25.133333333333333,-80.91666666666667
FL,FORT MYERS,KFMY,FMY,,26,35N,081,52W,4,X,,T,,A,,6.0,US,26.583333333333332,-81.86666666666666
FL,FORT MYERS,KRSW,RSW,,26,32N,081,45W,8,X,,U,,A,,6.0,US,26.533333333333335,-81.75
FL,FORT PIERCE,KFPR,FPR,,27,30N,080,23W,7,X,,T,,A,,7.0,US,27.5,-80.38333333333334
FL,FT LAUDERD/EXEC,KFXE,FXE,,26,12N,080,11W,3,X,,T,,A,,7.0,US,26.2,-80.18333333333334
FL,FT LAUDERD/HOLLY,KFLL,FLL,,26,04N,080,09W,1,X,,T,,A,,6.0,US,26.066666666666666,-80.15
FL,GAINESVILLE,KGNV,GNV,,29,42N,082,17W,41,X,,T,,A,,4.0,US,29.7,-82.28333333333333
FL,HOLLYWOOD,KHWO,HWO,,26,00N,080,14W,2,X,,,,A,,7.0,US,26.0,-80.23333333333333
FL,HOMESTEAD AFB,KHST,HST,,25,29N,080,22W,1,X,,T,,,,6.0,US,25.483333333333334,-80.36666666666666
FL,HURLBURT FIELD,KHRT,,74777,30,25N,086,41W,10,X,,T,,,,6.0,US,30.416666666666668,-86.68333333333334
FL,IMMOKALEE,KIMM,IMM,,26,26N,081,24W,11,X,,,,W,,8.0,US,26.433333333333334,-81.4
FL,INVERNESS,KINF,,,28,48N,082,19W,14,X,,,,,,8.0,US,28.8,-82.31666666666666
FL,JACKSONVIL/CECIL,KVQQ,VQQ,,30,13N,081,53W,21,X,,T,,,,7.0,US,30.216666666666665,-81.88333333333334
FL,JACKSONVIL/CRAIG,KCRG,CRG,,30,20N,081,31W,12,X,,U,,A,,1.0,US,30.333333333333332,-81.51666666666667
FL,JACKSONVIL/HERLO,KHEG,,,30,17N,081,48W,25,X,,,,,,8.0,US,30.283333333333335,-81.8
FL,JACKSONVILLE,KJAX,JAX,72206,30,30N,081,41W,8,X,X,T,X,A,F,0.0,US,30.5,-81.68333333333334
FL,JACKSONVILLE NAS,KNIP,NIP,,30,14N,081,40W,3,X,,T,,,,6.0,US,30.233333333333334,-81.66666666666667
FL,JACKSONVIL/NAVAL,KNEN,NEN,,30,21N,081,53W,30,X,,,,,,8.0,US,30.35,-81.88333333333334
FL,KEYSTONE HEIGHTS,K42J,,,29,51N,082,03W,57,X,,,,W,,8.0,US,29.85,-82.05
FL,KEY LARGO      _,KK70,,,25,19N,080,17W,20,X,,,,,,7.0,US,25.316666666666666,-80.28333333333333
FL,KEY WEST,KEYW,EYW,72201,24,33N,081,45W,1,X,,U,,A,,2.0,US,24.55,-81.75
FL,KEY WEST NAS,KNQX,NQX,,24,34N,081,40W,2,X,,T,,,,6.0,US,24.566666666666666,-81.66666666666667
FL,KISSIMMEE/ORLAND,KISM,ISM,,28,17N,081,26W,25,X,,T,,,,7.0,US,28.283333333333335,-81.43333333333334
FL,LA BELLE,KX14,,,26,44N,081,26W,6,X,,,,W,,8.0,US,26.733333333333334,-81.43333333333334
FL,LAKE CITY,KLCQ,LCQ,,30,11N,082,35W,59,X,,,,,,7.0,US,30.183333333333334,-82.58333333333333
FL,LAKELAND REGIONA,KLAL,LAL,,27,59N,082,01W,39,X,,T,,,,7.0,US,27.983333333333334,-82.01666666666667
FL,LAKE WALES,KX07,,,27,54N,081,37W,36,X,,,,,,8.0,US,27.9,-81.61666666666666
FL,LANTANA/PALM BEA,KLNA,LNA,,26,36N,080,05W,3,X,,T,,,,7.0,US,26.6,-80.08333333333333
FL,LEESBURG,KLEE,LEE,,28,49N,081,49W,21,X,,T,,A,,7.0,US,28.816666666666666,-81.81666666666666
FL,LIVE OAK/SUWANNE,K24J,,,30,18N,083,02W,30,X,,,,,,7.0,US,30.3,-83.03333333333333
FL,MACDILL AFB/TAMP,KMCF,MCF,74788,27,51N,082,31W,3,X,,T,,,,6.0,US,27.85,-82.51666666666667
FL,MARATHON,KMTH,MTH,,24,44N,081,03W,1,X,,T,,A,,7.0,US,24.733333333333334,-81.05
FL,MARCO ISLAND,KMKY,MRK,,26,00N,081,40W,2,X,,,,W,,8.0,US,26.0,-81.66666666666667
FL,MARIANNA,KMAI,,74776,30,50N,085,11W,33,X,,,,A,,7.0,US,30.833333333333332,-85.18333333333334
FL,MAYPORT NAS,KNRB,NRB,,30,23N,081,25W,4,X,,T,,,,6.0,US,30.383333333333333,-81.41666666666667
FL,MELBOURNE,KMLB,MLB,72204,28,06N,080,39W,7,X,X,T,,A,F,4.0,US,28.1,-80.65
FL,MERRITT ISLAND,KCOI,COI,,28,20N,080,41W,1,X,,,,,,8.0,US,28.333333333333332,-80.68333333333334
FL,MIAMI BEACH,KMBF,,,25,46N,080,08W,1,X,,,,W,,8.0,US,25.766666666666666,-80.13333333333334
FL,MIAMI/EXECUTIVE,KTMB,TMB,,25,39N,080,26W,2,X,,T,,A,,7.0,US,25.65,-80.43333333333334
FL,MIAMI,KMIA,MIA,,25,48N,080,19W,1,X,,U,,A,,0.0,US,25.8,-80.31666666666666
FL,MIAMI/OPA LOCKA,KOPF,OPF,,25,55N,080,17W,1,X,,T,,A,,1.0,US,25.916666666666668,-80.28333333333333
FL,MILTON/WHITING S,KNDZ,,,30,42N,087,01W,51,X,,,,,,8.0,US,30.7,-87.01666666666667
FL,NAPLES MUNICIPAL,KAPF,APF,,26,09N,081,46W,2,X,,T,,A,,6.0,US,26.15,-81.76666666666667
FL,NASA SHUTTLE FCL,KTTS,,,28,35N,080,40W,1,X,,T,,,,7.0,US,28.583333333333332,-80.66666666666667
FL,NEW SMYRNA BEACH,KEVB,,,29,03N,080,57W,2,X,,,,W,,8.0,US,29.05,-80.95
FL,NORTH PALM BEACH,KF45,,,26,51N,080,13W,6,X,,,,,,8.0,US,26.85,-80.21666666666667
FL,OCALA MUNI,KOCF,OCF,,29,10N,082,13W,24,X,,,,W,,7.0,US,29.166666666666668,-82.21666666666667
FL,OCEAN REEF,KOCR,,,25,18N,080,16W,2,X,,,,W,,8.0,US,25.3,-80.26666666666667
FL,OKEECHOBEE CTY,KOBE,OBE,,27,16N,080,51W,11,X,,,,,,8.0,US,27.266666666666666,-80.85
FL,ORLANDO,KMCO,MCO,72205,28,25N,081,20W,27,X,,T,,A,,2.0,US,28.416666666666668,-81.33333333333333
FL,ORLANDO,KORL,ORL,,28,33N,081,20W,32,X,,V,,A,,6.0,US,28.55,-81.33333333333333
FL,ORMOND BEACH VOR,KOMN,,,29,18N,081,07W,7,X,,V,,,,8.0,US,29.3,-81.11666666666666
FL,PALATKA MUNI,K28J,,,29,39N,081,41W,9,X,,,,,,7.0,US,29.65,-81.68333333333334
FL,PALM COAST,KXFL,,,29,28N,081,12W,10,X,,,,,,8.0,US,29.466666666666665,-81.2
FL,PANAMA CITY,KECP,ECP,,30,21N,085,48W,17,X,,T,,A,,6.0,US,30.35,-85.8
FL,PATRICK AFB/COCO,KCOF,COF,74795,28,14N,080,36W,1,X,,T,,,,6.0,US,28.233333333333334,-80.6
FL,PENSACOLA,KPNS,PNS,,30,29N,087,11W,34,X,,T,,A,,6.0,US,30.483333333333334,-87.18333333333334
FL,PENSACOLA NAS,KNPA,NPA,,30,21N,087,19W,6,X,,T,,,,6.0,US,30.35,-87.31666666666666
FL,PERRY FOLEY,K40J,,,30,04N,083,34W,12,X,,,,A,,7.0,US,30.066666666666666,-83.56666666666666
FL,PERRY FOLEY,KFPY,,,30,04N,083,34W,12,X,,,,A,,7.0,US,30.066666666666666,-83.56666666666666
FL,PLACIDA,K54A,,,26,51N,082,15W,2,X,,,,W,,7.0,US,26.85,-82.25
FL,PLANT CITY MUNI,KPCM,,,28,00N,082,10W,43,X,,,,,,7.0,US,28.0,-82.16666666666667
FL,POMPANO BEACH,KPMP,PPM,,26,15N,080,07W,4,X,,,,A,,7.0,US,26.25,-80.11666666666666
FL,PORT RICHEY,KX41,,,28,21N,082,37W,12,X,,,,,,7.0,US,28.35,-82.61666666666666
FL,PUNTA GORDA,KPGD,PGD,,26,55N,082,00W,7,X,,T,,A,,7.0,US,26.916666666666668,-82.0
FL,QUINCY,K2J9,,,30,36N,084,33W,62,X,,,,W,,8.0,US,30.6,-84.55
FL,SANFORD/ORLANDO,KSFB,SFB,,28,46N,081,14W,16,X,,T,,,,6.0,US,28.766666666666666,-81.23333333333333
FL,SARASOTA/BRADENT,KSRQ,SRQ,,27,24N,082,34W,5,X,,U,,A,,6.0,US,27.4,-82.56666666666666
FL,SEBASTIAN,KX26,,,27,49N,080,30W,5,X,,,,W,,8.0,US,27.816666666666666,-80.5
FL,SEBRING,KSEF,SEF,,27,27N,081,21W,17,X,,,,,,8.0,US,27.45,-81.35
FL,ST AUGUSTINE,KSGJ,UST,,29,58N,081,20W,2,X,,T,,,,7.0,US,29.966666666666665,-81.33333333333333
FL,ST PETERS/ALBERT,KSPG,SPG,,27,46N,082,38W,1,X,,,,A,,7.0,US,27.766666666666666,-82.63333333333334
FL,ST PETERSBURG,KPIE,PIE,,27,55N,082,41W,1,X,,U,,A,,6.0,US,27.916666666666668,-82.68333333333334
FL,STUART/WITHAM,KSUA,SUA,,27,11N,080,13W,4,X,,T,,,,7.0,US,27.183333333333334,-80.21666666666667
FL,TALLAHASSEE,KTLH,TLH,72214,30,24N,084,21W,17,X,X,U,X,A,,3.0,US,30.4,-84.35
FL,TAMPA,KTPA,TPA,72211,27,58N,082,32W,2,X,,T,,A,,3.0,US,27.966666666666665,-82.53333333333333
FL,TAMPA/O KNIGHT,KTPF,TPF,,27,55N,082,27W,1,X,,,,,,8.0,US,27.916666666666668,-82.45
FL,TAMPA/VANDENBURG,KVDF,,,28,01N,082,20W,5,X,,,,,,7.0,US,28.016666666666666,-82.33333333333333
FL,THE VILLAGES,KVVG,,,28,58N,081,58W,27,X,,,,,,7.0,US,28.966666666666665,-81.96666666666667
FL,TITUSVILLE,KTIX,TIX,,28,30N,080,48W,10,X,,T,,,,7.0,US,28.5,-80.8
FL,TYNDALL AFB,KPAM,PAM,74775,30,04N,085,34W,4,X,,T,,,,6.0,US,30.066666666666666,-85.56666666666666
FL,TYNDALL DRONE,KTDR,,,30,03N,085,31W,4,X,,,,W,,7.0,US,30.05,-85.51666666666667
FL,VENICE,KVNC,VNC,,27,04N,082,26W,4,X,,,,,,8.0,US,27.066666666666666,-82.43333333333334
FL,VERO BEACH,KTRV,,,27,39N,080,25W,10,X,,V,,,,7.0,US,27.65,-80.41666666666667
FL,VERO BEACH,KVRB,VRB,,27,39N,080,25W,7,X,,T,,A,,4.0,US,27.65,-80.41666666666667
FL,WEST PALM BEACH,KPBI,PBI,72203,26,41N,080,06W,4,X,,U,,A,,3.0,US,26.683333333333334,-80.1
FL,WHITING FLD NAS,KNSE,NSE,,30,44N,087,01W,56,X,,T,,,,7.0,US,30.733333333333334,-87.01666666666667
FL,WILLISTON,KX60,,,29,21N,082,28W,21,X,,,,,,7.0,US,29.35,-82.46666666666667
FL,WINTER HAVEN,KGIF,GIF,,28,04N,081,45W,44,X,,,,A,,7.0,US,28.066666666666666,-81.75
FL,ZEPHYRHILLS,KZPH,ZPH,,28,14N,082,09W,26,X,,,,,,7.0,US,28.233333333333334,-82.15
GA,ALBANY,KABY,ABY,72216,31,32N,084,12W,60,X,,T,,A,,6.0,US,31.533333333333335,-84.2
GA,ALMA,KAMG,,,31,32N,082,30W,61,X,,V,,A,,6.0,US,31.533333333333335,-82.5
GA,AMERICUS,KACJ,,,32,07N,084,11W,140,X,,,,W,,8.0,US,32.11666666666667,-84.18333333333334
GA,ATHENS,KAHN,AHN,72311,33,57N,083,20W,241,X,,T,,A,,4.0,US,33.95,-83.33333333333333
GA,ATLANTA/FULTON,KFTY,FTY,,33,47N,084,31W,245,X,,T,,A,,3.0,US,33.78333333333333,-84.51666666666667
GA,ATLANTA,KATL,ATL,72219,33,38N,084,27W,309,X,,U,,A,,0.0,US,33.63333333333333,-84.45
GA,ATLANTA/PAULDING,KPUJ,,,33,55N,084,56W,385,X,,,,W,,8.0,US,33.916666666666664,-84.93333333333334
GA,AUGUSTA/BUSH,KAGS,AGS,72218,33,22N,081,58W,40,X,,T,,A,,4.0,US,33.36666666666667,-81.96666666666667
GA,AUGUSTA/DANIEL,KDNL,DNL,,33,28N,082,02W,126,X,,T,,A,,7.0,US,33.46666666666667,-82.03333333333333
GA,BAINBRIDGE,KBGE,BGE,,30,58N,084,38W,40,X,,,,W,,8.0,US,30.966666666666665,-84.63333333333334
GA,BAXLEY MUNI,KBHC,,,31,43N,082,24W,61,X,,,,,,7.0,US,31.716666666666665,-82.4
GA,BLAIRSVILLE,KDZJ,,,34,51N,084,00W,578,X,,,,W,,8.0,US,34.85,-84.0
GA,BLAKELY EARLY C,KBIJ,,,31,24N,084,54W,63,X,,,,W,,7.0,US,31.4,-84.9
GA,BRUNSWICK/GLYNCO,KBQK,BQK,,31,15N,081,28W,7,X,,,,,,7.0,US,31.25,-81.46666666666667
GA,BRUNSWICK,KSSI,SSI,,31,09N,081,23W,6,X,,T,,A,,6.0,US,31.15,-81.38333333333334
GA,BUTLER,K6A1,,,32,34N,084,15W,198,X,,,,W,,8.0,US,32.56666666666667,-84.25
GA,CALHOUN,KCZL,,,34,28N,084,56W,197,X,,,,,,7.0,US,34.46666666666667,-84.93333333333334
GA,CAMILLA,KCXU,,,31,13N,084,14W,48,X,,,,,,7.0,US,31.216666666666665,-84.23333333333333
GA,CANON,K18A,,,34,21N,083,08W,260,X,,,,,,8.0,US,34.35,-83.13333333333334
GA,CANTON/CHEROKEE,KCNI,,,34,19N,084,25W,371,X,,,,W,,7.0,US,34.31666666666667,-84.41666666666667
GA,CARROLLTON/GRAY,KCTJ,,,33,38N,085,09W,351,X,,,,,,8.0,US,33.63333333333333,-85.15
GA,CARTERSVILLE,KVPC,,,34,06N,084,51W,234,X,,,,A,,7.0,US,34.1,-84.85
GA,CLAXTON/EVANS CO,KCWV,,,32,12N,081,52W,32,X,,,,,,8.0,US,32.2,-81.86666666666666
GA,COCHRAN,K48A,,,32,24N,083,16W,115,X,,,,,,8.0,US,32.4,-83.26666666666667
GA,COLUMBUS,KCSG,CSG,,32,31N,084,57W,120,X,,T,,A,,6.0,US,32.516666666666666,-84.95
GA,CORDELE,KCKF,,,31,59N,083,46W,92,X,,,,,,7.0,US,31.983333333333334,-83.76666666666667
GA,CORNELIA,KAJR,,,34,30N,083,33W,441,X,,,,,,7.0,US,34.5,-83.55
GA,COVINGTON,K9A1,,,33,38N,083,51W,242,X,,,,W,,8.0,US,33.63333333333333,-83.85
GA,COVINGTON,KCVC,,,33,38N,083,51W,240,X,,,,,,7.0,US,33.63333333333333,-83.85
GA,DALTON,KDNN,DNN,,34,43N,084,52W,216,X,,,,,,7.0,US,34.71666666666667,-84.86666666666666
GA,DOBBINS AFB/MARI,KMGE,MGE,72227,33,55N,084,31W,309,X,,T,,,,6.0,US,33.916666666666664,-84.51666666666667
GA,DONALDSON,K17J,,,31,00N,084,52W,42,X,,,,,,8.0,US,31.0,-84.86666666666666
GA,DOUGLAS MUNI,KDQH,,,31,29N,082,52W,76,X,,,,W,,7.0,US,31.483333333333334,-82.86666666666666
GA,DUBLIN,KDBN,DBN,,32,34N,082,59W,90,X,,,,W,,7.0,US,32.56666666666667,-82.98333333333333
GA,EASTMAN,KEZM,,,32,13N,083,08W,86,X,,,,,,8.0,US,32.21666666666667,-83.13333333333334
GA,ELBERTON PATZ F,K27A,,,34,06N,082,49W,184,X,,,,W,,8.0,US,34.1,-82.81666666666666
GA,ELBERTON PATZ F,KEBA,,,34,06N,082,49W,180,X,,,,W,,8.0,US,34.1,-82.81666666666666
GA,FITZGERALD,KFZG,,,31,41N,083,16W,105,X,,,,,,8.0,US,31.683333333333334,-83.26666666666667
GA,FT BENNING/COLUM,KLSF,LSF,72225,32,19N,084,58W,68,X,,T,,,,6.0,US,32.31666666666667,-84.96666666666667
GA,FT STEWART/WRIGH,KLHW,LIY,72209,31,53N,081,34W,14,X,,,,,,7.0,US,31.883333333333333,-81.56666666666666
GA,GAINESVILLE,KGVL,GVL,,34,16N,083,50W,387,X,,,,A,,7.0,US,34.266666666666666,-83.83333333333333
GA,GILMORE COUNTY,K49A,,,34,38N,084,32W,449,X,,,,,,8.0,US,34.63333333333333,-84.53333333333333
GA,GREENSBORO,K3J7,,,33,36N,083,08W,207,X,,,,W,,7.0,US,33.6,-83.13333333333334
GA,GRIFFIN-SPALDING,K6A2,,,33,14N,084,16W,290,X,,,,W,,8.0,US,33.233333333333334,-84.26666666666667
GA,HAMPTON/CLAY CNT,K4A7,,,33,23N,084,20W,266,X,,,,,,8.0,US,33.38333333333333,-84.33333333333333
GA,HAMPTON/HENRY,KHMP,,,33,23N,084,20W,263,X,,,,,,8.0,US,33.38333333333333,-84.33333333333333
GA,HAZELHURST,KAZE,,,31,53N,082,39W,78,X,,,,,,8.0,US,31.883333333333333,-82.65
GA,HOMERVILLE,KHOE,,,31,03N,082,47W,56,X,,,,,,8.0,US,31.05,-82.78333333333333
GA,JASPER,KJZP,,,34,27N,084,28W,462,X,,,,,,7.0,US,34.45,-84.46666666666667
GA,JEFFERSON,K19A,,,34,11N,083,34W,290,X,,,,W,,8.0,US,34.18333333333333,-83.56666666666666
GA,JEFFERSON,KJCA,,,34,11N,083,34W,287,X,,,,W,,8.0,US,34.18333333333333,-83.56666666666666
GA,JESUP/WAYNE CTY,KJES,,,31,33N,081,53W,26,X,,,,,,8.0,US,31.55,-81.88333333333334
GA,LAFAYETTE,K9A5,,,34,41N,085,17W,234,X,,,,,,8.0,US,34.68333333333333,-85.28333333333333
GA,LA GRANGE,KLGC,LGC,,33,00N,085,04W,209,X,,V,,,,6.0,US,33.0,-85.06666666666666
GA,LAWRENCEVILLE,KLZU,LZU,,33,59N,083,58W,316,X,,,,,,7.0,US,33.983333333333334,-83.96666666666667
GA,LOUISVILLE,K2J3,,,32,59N,082,23W,97,X,,,,,,7.0,US,32.983333333333334,-82.38333333333334
GA,MACON,KMCN,MCN,72217,32,41N,083,39W,104,X,,U,,A,,3.0,US,32.68333333333333,-83.65
GA,MARIETTA MCCOLUM,KRYY,,,34,01N,084,36W,306,X,,T,,,,7.0,US,34.016666666666666,-84.6
GA,MCDUFFIE/THOMSON,KHQU,,,33,32N,082,31W,141,X,,,,W,,7.0,US,33.53333333333333,-82.51666666666667
GA,MC RAE,KMQW,,,32,06N,082,53W,62,X,,,,,,7.0,US,32.1,-82.88333333333334
GA,METTER,KHME,,,32,22N,082,04W,60,X,,,,,,8.0,US,32.36666666666667,-82.06666666666666
GA,METTER,KMHP,,,32,22N,082,05W,60,X,,,,,,7.0,US,32.36666666666667,-82.08333333333333
GA,MILLEDGEVILLE,KMLJ,MLJ,,33,09N,083,15W,115,X,,,,W,,8.0,US,33.15,-83.25
GA,MILLEN,K2J5,,,32,54N,081,58W,72,X,,,,,,8.0,US,32.9,-81.96666666666667
GA,MONROE,KD73,,,33,47N,083,42W,254,X,,,,,,8.0,US,33.78333333333333,-83.7
GA,MOODY AFB/VALDOS,KVAD,VAD,74781,30,58N,083,12W,70,X,,T,,,,6.0,US,30.966666666666665,-83.2
GA,MOULTRIE MUNI,KMGR,MGR,,31,05N,083,48W,86,X,,,,W,,7.0,US,31.083333333333332,-83.8
GA,MOULTRIE/SPENCE,KMUL,MUL,,31,08N,083,42W,89,X,,,,W,,7.0,US,31.133333333333333,-83.7
GA,NEWNAN,KCCO,,,33,19N,084,46W,290,X,,,,,,7.0,US,33.31666666666667,-84.76666666666667
GA,PEACHTREE CITY,KFFC,,,33,21N,084,34W,242,X,X,,X,A,F,1.0,US,33.35,-84.56666666666666
GA,PEACHTREE/DEKALB,KPDK,PDK,,33,53N,084,18W,299,X,,T,,A,,7.0,US,33.88333333333333,-84.3
GA,PERRY HOUSTON CN,KPXE,,,32,31N,083,46W,126,X,,,,,,7.0,US,32.516666666666666,-83.76666666666667
GA,PINE MOUNTAIN,KPIM,PIM,,32,50N,084,53W,274,X,,,,,,8.0,US,32.833333333333336,-84.88333333333334
GA,REIDSVILLE,KRVJ,,,32,04N,082,09W,60,X,,,,,,8.0,US,32.06666666666667,-82.15
GA,ROME,KRMG,RMG,72320,34,21N,085,10W,196,X,,,,A,,7.0,US,34.35,-85.16666666666667
GA,SANDERSVILLE,KOKZ,,,32,58N,082,50W,128,X,,,,,,7.0,US,32.96666666666667,-82.83333333333333
GA,SAVANNAH/HUNTER,KSVN,SVN,,32,01N,081,07W,13,X,,T,,,,6.0,US,32.016666666666666,-81.11666666666666
GA,SAVANNAH,KSAV,SAV,72207,32,07N,081,12W,10,X,,U,,A,,4.0,US,32.11666666666667,-81.2
GA,STATESBORO,KTBR,TBR,,32,29N,081,44W,54,X,,,,W,,7.0,US,32.483333333333334,-81.73333333333333
GA,SWAINSBORO,KSBO,,,32,37N,082,22W,98,X,,,,W,,8.0,US,32.61666666666667,-82.36666666666666
GA,SYLVANIA,KJYL,,,32,39N,081,36W,54,X,,,,W,,7.0,US,32.65,-81.6
GA,THOMASTON UPSON,KOPN,,,32,57N,084,16W,241,X,,,,,,7.0,US,32.95,-84.26666666666667
GA,THOMASVILLE,KTVI,TVI,,30,54N,083,53W,74,X,,,,W,,8.0,US,30.9,-83.88333333333334
GA,TIFTON,KTMA,TMA,,31,26N,083,29W,105,X,,,,W,,8.0,US,31.433333333333334,-83.48333333333333
GA,TOCCOA,KTOC,TOC,,34,36N,083,18W,292,X,,,,,,8.0,US,34.6,-83.3
GA,VALDOSTA REGIONA,KVLD,VLD,,30,47N,083,16W,59,X,,T,,A,,6.0,US,30.783333333333335,-83.26666666666667
GA,VIDALIA MUNI,KVDI,VDI,,32,12N,082,22W,81,X,,,,W,,7.0,US,32.2,-82.36666666666666
GA,WARNER ROBINS AF,KWRB,WRB,,32,38N,083,35W,82,X,,T,,,,6.0,US,32.63333333333333,-83.58333333333333
GA,WASHINGTON,KIIY,,,33,47N,082,49W,192,X,,,,W,,7.0,US,33.78333333333333,-82.81666666666666
GA,WAYCROSS/WARE CO,KAYS,AYS,72213,31,15N,082,24W,42,X,,,,,,7.0,US,31.25,-82.4
GA,WINDER/BARROW,KWDR,WDR,,33,59N,083,40W,280,X,,,,,,7.0,US,33.983333333333334,-83.66666666666667
HI,BARKING SANDS/KA,PHBK,BKH,91162,22,02N,159,47W,5,X,,,,,,7.0,US,22.033333333333335,-159.78333333333333
HI,BRADSHAW AAF/HAW,PHSF,BSF,,19,46N,155,33W,1863,X,,T,,,,6.0,US,19.766666666666666,-155.55
HI,HANA,PHHN,HNM,91194,20,48N,156,01W,20,X,,,,,,7.0,US,20.8,-156.01666666666668
HI,HICKAM AFB,PHIK,,,21,19N,157,56W,7,X,,T,,,,8.0,US,21.316666666666666,-157.93333333333334
HI,HILO,PHTO,ITO,91285,19,43N,155,03W,9,X,,T,X,A,,5.0,US,19.716666666666665,-155.05
HI,HONOLULU,PHNL,HNL,91182,21,20N,157,56W,2,X,,T,,A,,6.0,US,21.333333333333332,-157.93333333333334
HI,KAHULUI,PHOG,OGG,91190,20,54N,156,26W,14,X,,T,,A,,6.0,US,20.9,-156.43333333333334
HI,KAILUA/KONA,PHKO,KOA,,19,44N,156,03W,11,X,,T,,A,,6.0,US,19.733333333333334,-156.05
HI,KALAELOA,PHJR,JRF,91178,21,19N,158,04W,9,X,,T,,,,6.0,US,21.316666666666666,-158.06666666666666
HI,KALAUPAPA,PHLU,LUP,,21,13N,156,58W,7,X,,,,,,7.0,US,21.216666666666665,-156.96666666666667
HI,KANEOHE MCAS,PHNG,NGF,91176,21,26N,157,46W,1,X,,T,,,,6.0,US,21.433333333333334,-157.76666666666668
HI,LAHAINA/WEST MAU,PHJH,JHM,,20,58N,156,40W,67,X,,T,,,,6.0,US,20.966666666666665,-156.66666666666666
HI,LANAI CITY AIRPO,PHNY,LNY,,20,46N,156,57W,395,X,,T,,,,6.0,US,20.766666666666666,-156.95
HI,LIHUE/KAUAI IS,PHLI,LIH,91165,21,58N,159,20W,32,X,,T,X,,,5.0,US,21.966666666666665,-159.33333333333334
HI,MIDWAY ISLAND NA,PMDY,MDY,91066,28,13N,177,22W,6,X,,T,,,,6.0,UM,28.216666666666665,-177.36666666666667
HI,MOLOKAI/KUKUI,PHMO,,,21,08N,157,11W,415,X,X,,,,,5.0,US,21.133333333333333,-157.18333333333334
HI,MOLOKAI,PHMK,MKK,91186,21,09N,157,06W,135,X,,T,,A,,6.0,US,21.15,-157.1
HI,WHEELER AFB/OAHU,PHHI,HHI,91170,21,29N,158,03W,246,X,,T,,,,6.0,US,21.483333333333334,-158.05
IA,ALGONA,KAXA,AXG,,43,04N,094,16W,371,X,,,,W,,8.0,US,43.06666666666667,-94.26666666666667
IA,AMES,KAMW,AMW,,41,59N,093,37W,282,X,,,,A,,7.0,US,41.983333333333334,-93.61666666666666
IA,ANKENY,KIKV,,,41,41N,093,34W,270,X,,,,W,,8.0,US,41.68333333333333,-93.56666666666666
IA,ATLANTIC,KAIO,AIO,,41,24N,095,02W,349,X,,,,W,,8.0,US,41.4,-95.03333333333333
IA,AUDUBON,KADU,,,41,42N,094,55W,391,X,,,,W,,8.0,US,41.7,-94.91666666666667
IA,BOONE MUNI,KBNW,BNW,,42,02N,093,50W,350,X,,,,W,,8.0,US,42.03333333333333,-93.83333333333333
IA,BURLINGTON,KBRL,BRL,,40,46N,091,08W,208,X,,T,,A,,6.0,US,40.766666666666666,-91.13333333333334
IA,CARROLL,KCIN,CIN,,42,02N,094,47W,365,X,,,,W,,8.0,US,42.03333333333333,-94.78333333333333
IA,CEDAR RAPIDS,KCID,CID,72545,41,53N,091,43W,257,X,,T,,A,,4.0,US,41.88333333333333,-91.71666666666667
IA,CENTERVILLE MUNI,KTVK,,,40,41N,092,54W,311,X,,,,,,8.0,US,40.68333333333333,-92.9
IA,CHARITON,KCNC,,,41,01N,093,22W,319,X,,,,W,,8.0,US,41.016666666666666,-93.36666666666666
IA,CHARLES CITY,KCCY,CCY,,43,04N,092,37W,340,X,,,,W,,8.0,US,43.06666666666667,-92.61666666666666
IA,CHEROKEE,KCKP,,,42,44N,095,33W,369,X,,,,W,,8.0,US,42.733333333333334,-95.55
IA,CLARINDA,KICL,ICL,,40,43N,095,01W,299,X,,,,W,,8.0,US,40.71666666666667,-95.01666666666667
IA,CLARION,KCAV,,,42,45N,093,46W,352,X,,,,W,,8.0,US,42.75,-93.76666666666667
IA,CLINTON MUNI,KCWI,CWI,,41,49N,090,19W,212,X,,,,W,,8.0,US,41.81666666666667,-90.31666666666666
IA,COUNCIL BLUFFS,KCBF,CBF,,41,16N,095,46W,379,X,,,,W,,8.0,US,41.266666666666666,-95.76666666666667
IA,CRESTON,KCSQ,CSQ,,41,01N,094,22W,394,X,,,,W,,8.0,US,41.016666666666666,-94.36666666666666
IA,DAVENPORT/QUAD C,KDVN,DVN,,41,37N,090,35W,227,X,X,,X,A,F,3.0,US,41.61666666666667,-90.58333333333333
IA,DECORAH,KDEH,DEH,,43,16N,091,44W,348,X,,,,W,,8.0,US,43.266666666666666,-91.73333333333333
IA,DENISON,KDNS,DNS,,41,59N,095,22W,382,X,,,,W,,8.0,US,41.983333333333334,-95.36666666666666
IA,DES MOINES,KDSM,DSM,72546,41,32N,093,40W,286,X,,U,,A,,2.0,US,41.53333333333333,-93.66666666666667
IA,DUBUQUE,KDBQ,DBQ,72547,42,24N,090,42W,317,X,,U,,A,,4.0,US,42.4,-90.7
IA,ESTHERVILLE,KEST,EST,,43,24N,094,45W,401,X,,,,A,,7.0,US,43.4,-94.75
IA,FAIRFIELD,KFFL,FFL,,41,03N,091,58W,240,X,,,,W,,8.0,US,41.05,-91.96666666666667
IA,FOREST CITY,KFXY,FXY,,43,14N,093,37W,366,X,,,,,,8.0,US,43.233333333333334,-93.61666666666666
IA,FORT DODGE,KFOD,FOD,72549,42,32N,094,10W,347,X,,U,,W,,6.0,US,42.53333333333333,-94.16666666666667
IA,FORT MADISON,KFSW,FMS,,40,40N,091,19W,219,X,,,,W,,8.0,US,40.666666666666664,-91.31666666666666
IA,GRINNELL REG,KGGI,,,41,43N,092,44W,305,X,,,,W,,8.0,US,41.71666666666667,-92.73333333333333
IA,HAMPTON,KHPT,HPT,,42,43N,093,14W,354,X,,,,,,8.0,US,42.71666666666667,-93.23333333333333
IA,HARLAN MUNI,KHNR,,,41,35N,095,20W,364,X,,,,W,,8.0,US,41.583333333333336,-95.33333333333333
IA,INDEPENDENCE,KIIB,,,42,27N,091,57W,294,X,,,,W,,8.0,US,42.45,-91.95
IA,IOWA CITY,KIOW,IOW,,41,38N,091,33W,199,X,,V,,A,,6.0,US,41.63333333333333,-91.55
IA,IOWA FALLS MUNI,KIFA,IFA,,42,28N,093,16W,344,X,,,,W,,7.0,US,42.46666666666667,-93.26666666666667
IA,KEOKUK MUNI,KEOK,EOK,,40,28N,091,25W,206,X,,,,W,,8.0,US,40.46666666666667,-91.41666666666667
IA,KNOXVILLE,KOXV,,,41,17N,093,07W,280,X,,,,W,,8.0,US,41.28333333333333,-93.11666666666666
IA,LAMONI,KLWD,,,40,38N,093,54W,345,X,,,,A,,7.0,US,40.63333333333333,-93.9
IA,LE MARS,KLRJ,LRJ,,42,46N,096,12W,363,X,,,,W,,8.0,US,42.766666666666666,-96.2
IA,MARSHALLTOWN,KMIW,MIW,,42,07N,092,55W,296,X,,,,A,,7.0,US,42.11666666666667,-92.91666666666667
IA,MASON CITY,KMCW,MCW,,43,09N,093,20W,363,X,,U,,A,,6.0,US,43.15,-93.33333333333333
IA,MAURICE,KSXK,,,42,59N,096,10W,430,X,,,,,,8.0,US,42.983333333333334,-96.16666666666667
IA,MONTICELLO MUNI,KMXO,MXO,,42,13N,091,10W,251,X,,,,W,,8.0,US,42.21666666666667,-91.16666666666667
IA,MT PLEASANT,KMPZ,MPZ,,40,57N,091,31W,222,X,,,,W,,8.0,US,40.95,-91.51666666666667
IA,MUSCATINE,KMUT,MUT,,41,22N,091,09W,166,X,,,,W,,8.0,US,41.36666666666667,-91.15
IA,NEWTON MUNI,KTNU,TNU,,41,40N,093,01W,287,X,,,,W,,8.0,US,41.666666666666664,-93.01666666666667
IA,OELWEN,KOLZ,,,42,40N,091,58W,328,X,,,,W,,8.0,US,42.666666666666664,-91.96666666666667
IA,ORANGE CITY,KORC,,,42,59N,096,04W,430,X,,,,W,,8.0,US,42.983333333333334,-96.06666666666666
IA,OSCEOLA MUNI,KI75,,,41,03N,093,41W,336,X,,,,,,8.0,US,41.05,-93.68333333333334
IA,OSKALOOSA MUNI,KOOA,OOA,,41,14N,092,30W,256,X,,,,W,,8.0,US,41.233333333333334,-92.5
IA,OTTUMWA,KOTM,OTM,,41,06N,092,27W,254,X,,T,,A,,6.0,US,41.1,-92.45
IA,PELLA,KPEA,,,41,24N,092,57W,264,X,,,,W,,8.0,US,41.4,-92.95
IA,PERRY MUNI,KPRO,PRO,,41,50N,094,10W,308,X,,,,W,,8.0,US,41.833333333333336,-94.16666666666667
IA,RED OAK,KRDK,,,41,01N,095,16W,317,X,,,,W,,8.0,US,41.016666666666666,-95.26666666666667
IA,SHELDON,KSHL,,,43,13N,095,50W,430,X,,,,W,,8.0,US,43.21666666666667,-95.83333333333333
IA,SHENANDOAH MUNI,KSDA,,,40,45N,095,25W,293,X,,,,W,,8.0,US,40.75,-95.41666666666667
IA,SIOUX CITY,KSUX,SUX,72557,42,23N,096,23W,332,X,,T,,A,,3.0,US,42.38333333333333,-96.38333333333334
IA,SPENCER,KSPW,SPW,72560,43,10N,095,13W,407,X,,S,,A,,6.0,US,43.166666666666664,-95.21666666666667
IA,STORM LAKE,KSLB,SLB,,42,36N,095,14W,450,X,,,,W,,8.0,US,42.6,-95.23333333333333
IA,VINTON,KVTI,,,42,13N,092,01W,256,X,,,,W,,8.0,US,42.21666666666667,-92.01666666666667
IA,WASHINGTON,KAWG,,,41,16N,091,40W,229,X,,,,W,,8.0,US,41.266666666666666,-91.66666666666667
IA,WATERLOO,KALO,ALO,72548,42,33N,092,24W,264,X,,T,,A,,4.0,US,42.55,-92.4
IA,WEBSTER CITY,KEBS,EBS,,42,26N,093,52W,340,X,,,,W,,8.0,US,42.43333333333333,-93.86666666666666
ID,BOISE,KBOI,BOI,72681,43,34N,116,14W,860,X,,U,X,A,F,0.0,US,43.56666666666667,-116.23333333333333
ID,BONNERS FERRY,K65S,,,48,44N,116,18W,708,X,,,,,,8.0,US,48.733333333333334,-116.3
ID,BURLEY,KBYI,BYI,,42,33N,113,46W,1263,X,,T,,A,,6.0,US,42.55,-113.76666666666667
ID,CALDWELL,KEUL,,,43,38N,116,37W,741,X,,T,,,,7.0,US,43.63333333333333,-116.61666666666666
ID,CHALLIS,KLLJ,CHL,,44,31N,114,13W,1535,X,,,,A,,7.0,US,44.516666666666666,-114.21666666666667
ID,COEUR D'ALENE,KCOE,COE,,47,46N,116,49W,693,X,,T,,W,,4.0,US,47.766666666666666,-116.81666666666666
ID,DRIGGS REED MEM,KDIJ,,,43,45N,111,06W,1896,X,,T,,,,7.0,US,43.75,-111.1
ID,GOODING,KGNG,GNG,,42,55N,114,46W,1128,X,,,,,,8.0,US,42.916666666666664,-114.76666666666667
ID,GRANGEVILLE,KGIC,IDH,,45,57N,116,07W,1002,X,,,,,,7.0,US,45.95,-116.11666666666666
ID,HAILEY/FRIEDMAN,KSUN,SUN,,43,30N,114,17W,1619,X,,T,,,,6.0,US,43.5,-114.28333333333333
ID,IDAHO FALLS,KIDA,IDA,,43,31N,112,04W,1444,X,,T,,A,,6.0,US,43.516666666666666,-112.06666666666666
ID,JEROME COUNTY,KJER,,,42,43N,114,27W,1226,X,,T,,,,7.0,US,42.71666666666667,-114.45
ID,LEWISTON,KLWS,LWS,72783,46,22N,117,01W,435,X,,T,,A,,6.0,US,46.36666666666667,-117.01666666666667
ID,LOWELL/ELK CITY,KP69,,,46,09N,115,36W,447,X,,,,A,,7.0,US,46.15,-115.6
ID,MALAD CITY,KMLD,MLD,,42,10N,112,17W,1373,X,,V,,,,6.0,US,42.166666666666664,-112.28333333333333
ID,MALTA (AWRS),K77M,,,42,19N,113,19W,1375,X,,,,,,7.0,US,42.31666666666667,-113.31666666666666
ID,MCCALL,KMYL,MYL,,44,54N,116,06W,1532,X,,T,,A,,6.0,US,44.9,-116.1
ID,MOUNTAIN HOME,KMUO,MUO,,43,02N,115,52W,915,X,,T,,,,6.0,US,43.03333333333333,-115.86666666666666
ID,MULLAN PASS,KMLP,,,47,27N,115,40W,1837,X,,V,,A,,6.0,US,47.45,-115.66666666666667
ID,NAMPA,KMAN,,,43,35N,116,31W,773,X,,,,,,8.0,US,43.583333333333336,-116.51666666666667
ID,PARIS,K1U7,,,42,15N,111,20W,1808,X,,,,,,3.0,US,42.25,-111.33333333333333
ID,POCATELLO,KPIH,PIH,72578,42,55N,112,34W,1357,X,,U,,A,F,3.0,US,42.916666666666664,-112.56666666666666
ID,REXBURG,KRXE,RXE,,43,50N,111,48W,1483,X,,,,A,,7.0,US,43.833333333333336,-111.8
ID,SALMON/LEMHI,KSMN,SMN,,45,07N,113,52W,1228,X,,T,,,,6.0,US,45.11666666666667,-113.86666666666666
ID,SODA SPRINGS,KU78,,,42,38N,111,34W,1778,X,,,,,,7.0,US,42.63333333333333,-111.56666666666666
ID,SPENCER,KS14,,,44,21N,112,10W,1800,X,,,,,,7.0,US,44.35,-112.16666666666667
ID,STANLEY,KSNT,,,44,10N,114,56W,1980,X,,,,A,,7.0,US,44.166666666666664,-114.93333333333334
ID,TWIN FALLS,KTWF,TWF,,42,29N,114,29W,1269,X,,U,,A,,6.0,US,42.483333333333334,-114.48333333333333
ID,WALL/SANDPOINT,KSZT,,,48,18N,116,34W,649,X,,,,W,,7.0,US,48.3,-116.56666666666666
IL,ALTON/ST LOUIS R,KALN,ALN,,38,53N,090,02W,159,X,,,,,,7.0,US,38.88333333333333,-90.03333333333333
IL,BLOOMINGTON/NORM,KBMI,BMI,,40,28N,088,55W,262,X,,T,,,,7.0,US,40.46666666666667,-88.91666666666667
IL,CAHOKIA/ST LOUIS,KCPS,CPS,,38,32N,090,09W,125,X,,T,,A,,7.0,US,38.53333333333333,-90.15
IL,CAIRO,KCIR,CIR,,37,04N,089,13W,96,X,,,,W,,8.0,US,37.06666666666667,-89.21666666666667
IL,CARBONDALE/MURPH,KMDH,MDH,,37,47N,089,15W,122,X,,,,A,,7.0,US,37.78333333333333,-89.25
IL,CARMI MUNI,KCUL,,,38,05N,088,07W,116,X,,,,W,,7.0,US,38.083333333333336,-88.11666666666666
IL,CENTRALIA,KENL,ENL,,38,31N,089,06W,161,X,,,,W,,7.0,US,38.516666666666666,-89.1
IL,CHAMPAIGN/URBANA,KCMI,CMI,,40,02N,088,16W,227,X,,T,,A,,6.0,US,40.03333333333333,-88.26666666666667
IL,CHICAGO/AURORA,KARR,AUZ,,41,46N,088,29W,213,X,,,,A,,7.0,US,41.766666666666666,-88.48333333333333
IL,CHICAGO/DUPAGE,KDPA,DPA,,41,53N,088,15W,228,X,,T,,A,,6.0,US,41.88333333333333,-88.25
IL,CHICAGO,KMDW,MDW,72534,41,47N,087,45W,186,X,,T,,A,,1.0,US,41.78333333333333,-87.75
IL,CHICAGO/LANSING,KIGQ,,,41,32N,087,32W,187,X,,,,W,,7.0,US,41.53333333333333,-87.53333333333333
IL,CHICAGO O'HARE,KORD,ORD,72530,41,57N,087,56W,202,X,,U,,A,,0.0,US,41.95,-87.93333333333334
IL,DANVILLE,KDNV,DNV,,40,12N,087,36W,208,X,,,,W,,7.0,US,40.2,-87.6
IL,DECATUR,KDEC,DEC,,39,50N,088,52W,205,X,,U,,A,,4.0,US,39.833333333333336,-88.86666666666666
IL,DE KALB,KDKB,,,41,56N,088,42W,277,X,,,,W,,7.0,US,41.93333333333333,-88.7
IL,DIXON,KC73,,,41,50N,089,27W,240,X,,,,W,,7.0,US,41.833333333333336,-89.45
IL,EFFINGHAM,K1H2,,,39,04N,088,32W,174,X,,,,W,,7.0,US,39.06666666666667,-88.53333333333333
IL,FAIRFIELD,KFWC,,,38,23N,088,25W,131,X,,,,W,,7.0,US,38.38333333333333,-88.41666666666667
IL,FLORA,KFOA,,,38,40N,088,27W,141,X,,,,W,,7.0,US,38.666666666666664,-88.45
IL,FREEPORT,KFEP,FEP,,42,15N,089,35W,255,X,,,,W,,7.0,US,42.25,-89.58333333333333
IL,GALESBURG,KGBG,GBG,,40,56N,090,26W,230,X,,,,W,,7.0,US,40.93333333333333,-90.43333333333334
IL,GREENVILLE,KGRE,GRE,,38,50N,089,23W,162,X,,,,W,,8.0,US,38.833333333333336,-89.38333333333334
IL,HARRISBURG,KHSB,HSB,,37,49N,088,33W,118,X,,,,W,,7.0,US,37.81666666666667,-88.55
IL,JACKSONVILLE,KIJX,IJX,,39,46N,090,15W,187,X,,,,W,,7.0,US,39.766666666666666,-90.25
IL,JOLIET,KJOT,JOT,,41,31N,088,11W,175,X,,V,,W,,6.0,US,41.516666666666666,-88.18333333333334
IL,KANKAKEE,KIKK,IKK,,41,04N,087,51W,188,X,,,,W,,7.0,US,41.06666666666667,-87.85
IL,LACON,KC75,,,41,01N,089,23W,166,X,,,,W,,7.0,US,41.016666666666666,-89.38333333333334
IL,LAWRENCEVILLE,KLWV,LWV,,38,46N,087,36W,128,X,,,,A,,7.0,US,38.766666666666666,-87.6
IL,LINCOLN,KAAA,,,40,10N,089,20W,179,X,,,,W,,7.0,US,40.166666666666664,-89.33333333333333
IL,LITCHFIELD MUNI,K3LF,,,39,10N,089,40W,207,X,,,,W,,8.0,US,39.166666666666664,-89.66666666666667
IL,MACOMB MUNI,KMQB,MQB,,40,31N,090,39W,205,X,,,,W,,7.0,US,40.516666666666666,-90.65
IL,MARION REGIONAL,KMWA,MWA,,37,46N,089,01W,142,X,,,,,,7.0,US,37.766666666666666,-89.01666666666667
IL,MARSEILLES,KMMO,,74460,41,22N,088,40W,225,X,,,,M,,7.0,US,41.36666666666667,-88.66666666666667
IL,MATTOON/CHARLEST,KMTO,MTO,,39,28N,088,16W,216,X,,,,A,,7.0,US,39.46666666666667,-88.26666666666667
IL,METROPOLIS,KM30,,,37,11N,088,45W,116,X,,,,W,,7.0,US,37.18333333333333,-88.75
IL,MOLINE/QUAD CITY,KMLI,MLI,72544,41,27N,090,31W,174,X,,T,,A,,6.0,US,41.45,-90.51666666666667
IL,MONEE,KC56,,,41,23N,087,41W,241,X,,,,W,,7.0,US,41.38333333333333,-87.68333333333334
IL,MORRIS-WASHBURN,KC09,,,41,26N,088,25W,179,X,,,,W,,7.0,US,41.43333333333333,-88.41666666666667
IL,MOUNT CARMEL,KAJG,,,38,37N,087,44W,130,X,,,,W,,7.0,US,38.61666666666667,-87.73333333333333
IL,MOUNT STERLING,KI63,,,39,59N,090,48W,221,X,,,,,,7.0,US,39.983333333333334,-90.8
IL,MOUNT VERNON,KMVN,MVN,,38,19N,088,52W,145,X,,T,,W,,7.0,US,38.31666666666667,-88.86666666666666
IL,OLNEY-NOBLE,KOLY,OLY,,38,43N,088,11W,144,X,,,,W,,7.0,US,38.71666666666667,-88.18333333333334
IL,PALWAUKEE,KPWK,PWK,,42,07N,087,54W,194,X,,,,A,,7.0,US,42.11666666666667,-87.9
IL,PARIS,KPRG,,,39,42N,087,40W,197,X,,,,W,,7.0,US,39.7,-87.66666666666667
IL,PEORIA,KPIA,PIA,72532,40,40N,089,41W,200,X,,T,,A,,4.0,US,40.666666666666664,-89.68333333333334
IL,PERU,KVYS,VYS,,41,21N,089,09W,198,X,,,,W,,7.0,US,41.35,-89.15
IL,PITTSFIELD,KPPQ,,,39,38N,090,47W,215,X,,,,W,,7.0,US,39.63333333333333,-90.78333333333333
IL,PONTIAC,KPNT,,,40,55N,088,37W,199,X,,,,W,,7.0,US,40.916666666666664,-88.61666666666666
IL,QUINCY MUNI/BALD,KUIN,UIN,,39,57N,091,12W,233,X,,U,,A,,6.0,US,39.95,-91.2
IL,RANTOUL,KTIP,,,40,17N,088,09W,224,X,,,,W,,7.0,US,40.28333333333333,-88.15
IL,ROBINSON MUNI,KRSV,,,39,01N,087,39W,139,X,,,,W,,7.0,US,39.016666666666666,-87.65
IL,ROCHELLE/KORITZ,KRPJ,,,41,53N,089,05W,234,X,,,,W,,7.0,US,41.88333333333333,-89.08333333333333
IL,ROCKFORD,KRFD,RFD,72543,42,12N,089,06W,222,X,,T,,A,,4.0,US,42.2,-89.1
IL,ROMEOVILLE/CHI,KLOT,LOT,,41,36N,088,06W,205,X,X,,,W,F,5.0,US,41.6,-88.1
IL,SALEM/LECKRONE,KSLO,SLO,72433,38,39N,088,58W,173,X,,,,W,,7.0,US,38.65,-88.96666666666667
IL,SAVANNA/TRITOWN,KSFY,,,42,03N,090,07W,188,X,,,,W,,7.0,US,42.05,-90.11666666666666
IL,SCHAUMBURG,K06C,,,41,59N,088,06W,243,X,,,,,,8.0,US,41.983333333333334,-88.1
IL,SCOTT AFB/BELLEV,KBLV,BLV,,38,32N,089,50W,134,X,,T,,,,1.0,US,38.53333333333333,-89.83333333333333
IL,SPARTA,KSAR,SAR,,38,09N,089,42W,162,X,,,,W,,7.0,US,38.15,-89.7
IL,SPRINGFIELD,KSPI,SPI,72439,39,51N,089,41W,179,X,,T,,A,,6.0,US,39.85,-89.68333333333334
IL,STERLING ROCKFAL,KSQI,SQI,,41,45N,089,40W,196,X,,,,,,7.0,US,41.75,-89.66666666666667
IL,TAYLORVILLE,KTAZ,,,39,32N,089,20W,188,X,,,,W,,7.0,US,39.53333333333333,-89.33333333333333
IL,VANDALIA,KVLA,VLA,,38,59N,089,10W,162,X,,,,W,,7.0,US,38.983333333333334,-89.16666666666667
IL,WAUKEGAN,KUGN,UGN,,42,25N,087,52W,217,X,,,,,,7.0,US,42.416666666666664,-87.86666666666666
IN,ANDERSON MUNICIP,KAID,AID,,40,07N,085,37W,277,X,,,,,,7.0,US,40.11666666666667,-85.61666666666666
IN,ANGOLA,KANQ,ANQ,,41,38N,085,05W,299,X,,,,,,8.0,US,41.63333333333333,-85.08333333333333
IN,ATTERBURY,KHBE,,,39,20N,086,02W,215,X,,,,,,8.0,US,39.333333333333336,-86.03333333333333
IN,AUBURN DEKALB C,KGWB,,,41,18N,085,04W,268,X,,,,,,8.0,US,41.3,-85.06666666666666
IN,BATESVILLE,KHLB,HLB,,39,21N,085,16W,297,X,,,,,,8.0,US,39.35,-85.26666666666667
IN,BEDFORD,KBFR,,,38,50N,086,27W,223,X,,,,,,7.0,US,38.833333333333336,-86.45
IN,BLOOMINGTON,KBMG,BMG,,39,09N,086,37W,254,X,,T,,A,,7.0,US,39.15,-86.61666666666666
IN,COLUMBUS,KBAK,CLU,,39,16N,085,54W,199,X,,,,,,7.0,US,39.266666666666666,-85.9
IN,CONNERSVILLE,KCEV,CEV,,39,42N,085,08W,263,X,,,,,,7.0,US,39.7,-85.13333333333334
IN,CRAWFORDSVILLE,KCFJ,,,39,59N,086,55W,243,X,,,,,,7.0,US,39.983333333333334,-86.91666666666667
IN,DAVIESS COUNTY,KDCY,,,38,42N,087,08W,143,X,,,,,,8.0,US,38.7,-87.13333333333334
IN,ELKHART MUNICIPA,KEKM,EKI,,41,43N,086,00W,236,X,,,,,,7.0,US,41.71666666666667,-86.0
IN,EVANSVILLE,KEVV,EVV,72432,38,03N,087,31W,123,X,,T,,A,,4.0,US,38.05,-87.51666666666667
IN,FORT WAYNE,KFWA,FWA,72533,40,59N,085,12W,243,X,,U,,A,,3.0,US,40.983333333333334,-85.2
IN,FORT WAYNE SMITH,KSMD,SMD,,41,09N,085,09W,252,X,,,,,,7.0,US,41.15,-85.15
IN,FRANKFORT,KFKR,,,40,16N,086,34W,260,X,,,,,,7.0,US,40.266666666666666,-86.56666666666666
IN,FRENCH LICK,KFRH,FRH,,38,30N,086,38W,241,X,,,,,,8.0,US,38.5,-86.63333333333334
IN,GARY REGIONAL,KGYY,,,41,37N,087,25W,179,X,,T,,,,4.0,US,41.61666666666667,-87.41666666666667
IN,GOSHEN,KGSH,GSH,,41,32N,085,47W,252,X,,,,A,,7.0,US,41.53333333333333,-85.78333333333333
IN,GREENCASTLE,K4I7,,,39,38N,086,49W,257,X,,,,,,7.0,US,39.63333333333333,-86.81666666666666
IN,GREENCASTLE,KGPC,,,39,38N,086,49W,254,X,,,,,,7.0,US,39.63333333333333,-86.81666666666666
IN,GREENWOOD,KHFY,,,39,38N,086,05W,250,X,,,,,,7.0,US,39.63333333333333,-86.08333333333333
IN,GRISSOM AFB/PERU,KGUS,GUS,,40,38N,086,09W,245,X,,T,,,,6.0,US,40.63333333333333,-86.15
IN,HIMSEL AAF,K1II,,,39,20N,086,02W,214,X,,,,,,7.0,US,39.333333333333336,-86.03333333333333
IN,HUNTINGBURG,KHNB,HNB,,38,15N,086,57W,159,X,,T,,,,7.0,US,38.25,-86.95
IN,HUNTINGTON,KHHG,,,40,51N,085,27W,247,X,,,,,,7.0,US,40.85,-85.45
IN,INDIANAPOLIS EXC,KTYQ,,,40,02N,086,15W,279,X,,,,W,,8.0,US,40.03333333333333,-86.25
IN,INDIANAPOLIS,KEYE,,,39,50N,086,18W,248,X,,,,A,,7.0,US,39.833333333333336,-86.3
IN,INDIANAPOLIS,KIND,IND,72438,39,43N,086,16W,242,X,X,U,,A,F,2.0,US,39.71666666666667,-86.26666666666667
IN,INDIANAPOLIS REG,KMQJ,,,39,51N,085,54W,262,X,,,,W,,8.0,US,39.85,-85.9
IN,INDIANAPOLIS MET,KUMP,,,39,56N,086,03W,247,X,,,,,,7.0,US,39.93333333333333,-86.05
IN,JEFFERSONVILLE,KJVY,,,38,22N,085,44W,141,X,,,,,,8.0,US,38.36666666666667,-85.73333333333333
IN,KENDALLVILLE,KC62,,,41,28N,085,15W,304,X,,,,,,7.0,US,41.46666666666667,-85.25
IN,KNOX STARKE CTY,KOXI,,,41,20N,086,40W,208,X,,,,,,8.0,US,41.333333333333336,-86.66666666666667
IN,KOKOMO,KOKK,OKK,,40,32N,086,04W,251,X,,,,W,,8.0,US,40.53333333333333,-86.06666666666666
IN,LAFAYETTE,KLAF,LAF,,40,25N,086,56W,182,X,,T,,A,,4.0,US,40.416666666666664,-86.93333333333334
IN,LA PORTE,KPPO,LPO,,41,34N,086,44W,242,X,,,,,,8.0,US,41.56666666666667,-86.73333333333333
IN,LOGANSPORT,KGGP,,,40,43N,086,22W,224,X,,,,W,,8.0,US,40.71666666666667,-86.36666666666666
IN,MADISON,KIMS,MDN,,38,45N,085,28W,244,X,,,,,,8.0,US,38.75,-85.46666666666667
IN,MARION MUNI,KMZZ,MZZ,,40,29N,085,41W,260,X,,,,,,8.0,US,40.483333333333334,-85.68333333333334
IN,MICHIGAN CITY,KMGC,MGC,,41,42N,086,49W,199,X,,,,W,,8.0,US,41.7,-86.81666666666666
IN,MONTICELLO/WHITE,KMCX,,,40,43N,086,46W,205,X,,,,,,7.0,US,40.71666666666667,-86.76666666666667
IN,MUNCIE,KMIE,MIE,,40,14N,085,24W,286,X,,,,A,,7.0,US,40.233333333333334,-85.4
IN,PLYMOUTH,KC65,,,41,22N,086,18W,241,X,,,,,,8.0,US,41.36666666666667,-86.3
IN,PORTLAND,KPLD,,,40,27N,084,59W,282,X,,,,,,8.0,US,40.45,-84.98333333333333
IN,RENSSELAER,KRZL,RNZ,,40,57N,087,11W,210,X,,,,W,,8.0,US,40.95,-87.18333333333334
IN,RICHMOND,KRID,RID,,39,45N,084,51W,346,X,,,,,,8.0,US,39.75,-84.85
IN,ROCHESTER,KRCR,RCR,,41,04N,086,11W,240,X,,,,W,,8.0,US,41.06666666666667,-86.18333333333334
IN,SHELBYVILLE,KGEZ,,,39,35N,085,48W,245,X,,,,A,,7.0,US,39.583333333333336,-85.8
IN,SOUTH BEND,KSBN,SBN,72535,41,42N,086,19W,236,X,,T,,A,,4.0,US,41.7,-86.31666666666666
IN,TERRE HAUTE,KHUF,HUF,,39,27N,087,19W,174,X,,T,,A,,6.0,US,39.45,-87.31666666666666
IN,VALPARAISO,KVPZ,VPZ,,41,27N,087,00W,235,X,,,,A,,7.0,US,41.45,-87.0
IN,WARSAW MUNI,KASW,ASW,,41,16N,085,50W,253,X,,,W,,,8.0,US,41.266666666666666,-85.83333333333333
KS,ABILENE,KK78,,,38,54N,097,14W,352,X,,,,W,,9.0,US,38.9,-97.23333333333333
KS,ATWOOD,KADT,,,39,50N,101,03W,899,X,,,,,,7.0,US,39.833333333333336,-101.05
KS,AUGUSTA,K3AU,,,37,40N,097,05W,403,X,,,,,,8.0,US,37.666666666666664,-97.08333333333333
KS,BASSETT,KK88,,,37,52N,095,23W,308,X,,,,,,8.0,US,37.86666666666667,-95.38333333333334
KS,BENTON,K1K1,,,37,46N,097,07W,411,X,,,,,,8.0,US,37.766666666666666,-97.11666666666666
KS,BURLINGTON,KUKL,,,38,18N,095,44W,357,X,,,,W,,8.0,US,38.3,-95.73333333333333
KS,CHANUTE,KCNU,CNU,,37,40N,095,29W,301,X,,T,,A,,6.0,US,37.666666666666664,-95.48333333333333
KS,COFFEYVILLE,KCFV,CFV,,37,05N,095,34W,228,X,,,,A,,7.0,US,37.083333333333336,-95.56666666666666
KS,COLBY,KCBK,CBK,,39,26N,101,03W,970,X,,,,W,,9.0,US,39.43333333333333,-101.05
KS,COLDWATER,K3K8,,,37,13N,099,20W,640,X,,,,,,8.0,US,37.21666666666667,-99.33333333333333
KS,CONCORDIA,KCNK,CNK,72458,39,33N,097,39W,445,X,,,,A,,7.0,US,39.55,-97.65
KS,DODGE CITY,KDDC,DDC,72451,37,46N,099,58W,786,X,X,T,X,A,F,0.0,US,37.766666666666666,-99.96666666666667
KS,ELDORADO,KEQA,EDK,,37,47N,096,49W,422,X,,,,,,7.0,US,37.78333333333333,-96.81666666666666
KS,ELKHART,KEHA,,,37,00N,101,52W,1103,X,,S,,W,,6.0,US,37.0,-101.86666666666666
KS,ELLSWORTH,K9K7,,,38,45N,098,14W,492,X,,,,W,,9.0,US,38.75,-98.23333333333333
KS,EMPORIA,KEMP,EMP,,38,20N,096,12W,366,X,,,,A,,7.0,US,38.333333333333336,-96.2
KS,EUREKA,K13K,,,37,51N,096,18W,367,X,,,,W,,9.0,US,37.85,-96.3
KS,FORT LEAVENWORTH,KFLV,FLV,,39,22N,094,55W,235,X,,,,,,7.0,US,39.36666666666667,-94.91666666666667
KS,FORT SCOTT,KFSK,FSK,,37,48N,094,46W,276,X,,,,W,,9.0,US,37.8,-94.76666666666667
KS,FT RILEY/MARSHAL,KFRI,FRI,72455,39,03N,096,46W,232,X,,T,,,,6.0,US,39.05,-96.76666666666667
KS,GARDEN CITY,KGCK,GCK,,37,55N,100,43W,877,X,,U,,A,,4.0,US,37.916666666666664,-100.71666666666667
KS,GARNETT,KK68,,,38,17N,095,13W,301,X,,,,W,,7.0,US,38.28333333333333,-95.21666666666667
KS,GOODLAND,KGLD,GLD,72465,39,22N,101,42W,1111,X,X,U,,A,F,3.0,US,39.36666666666667,-101.7
KS,GREAT BEND,KGBD,GBD,,38,21N,098,52W,573,X,,T,,W,,7.0,US,38.35,-98.86666666666666
KS,GRINNELL,KGNL,,,39,08N,100,37W,887,X,,,,W,,9.0,US,39.13333333333333,-100.61666666666666
KS,HARPER,K8K2,,,37,17N,098,03W,445,X,,,,W,,7.0,US,37.28333333333333,-98.05
KS,HAYS MUNI,KHYS,HYS,,38,51N,099,16W,607,X,,T,,,,4.0,US,38.85,-99.26666666666667
KS,HERNDON,KHD7,,,39,55N,100,50W,814,X,,,,W,,9.0,US,39.916666666666664,-100.83333333333333
KS,HILL CITY,KHLC,HLC,,39,22N,099,50W,667,X,,V,,A,,6.0,US,39.36666666666667,-99.83333333333333
KS,HOXIE,KHOX,,,39,22N,100,26W,833,X,,,,W,,9.0,US,39.36666666666667,-100.43333333333334
KS,HUGOTON,KHQG,,,37,10N,101,22W,956,X,,,,,,8.0,US,37.166666666666664,-101.36666666666666
KS,HUGOTON,KHQG,,,37,10N,101,22W,956,X,,,,W,,9.0,US,37.166666666666664,-101.36666666666666
KS,HUTCHINSON,KHUT,HUT,,38,04N,097,52W,464,X,,T,,A,,6.0,US,38.06666666666667,-97.86666666666666
KS,INDEPENDENCE,KIDP,IDP,,37,10N,095,47W,252,X,,,,W,,8.0,US,37.166666666666664,-95.78333333333333
KS,JENNINGS,KJN8,,,39,41N,100,18W,762,X,,,,W,,8.0,US,39.68333333333333,-100.3
KS,JOHNSON CITY,KJHN,,,37,35N,101,44W,1013,X,,,,,,8.0,US,37.583333333333336,-101.73333333333333
KS,JOHNSON,K2K3,,,37,35N,101,44W,1013,X,,,,W,,9.0,US,37.583333333333336,-101.73333333333333
KS,KINGMAN,K9K8,,,37,40N,098,07W,490,X,,,,W,,9.0,US,37.666666666666664,-98.11666666666666
KS,LAKIN,K36K,,,37,58N,101,15W,938,X,,,,,,7.0,US,37.96666666666667,-101.25
KS,LAWRENCE,KLWC,LWC,,39,01N,095,13W,252,X,,,,A,,7.0,US,39.016666666666666,-95.21666666666667
KS,LEOTI/HOARD MEML,K3K7,,,38,27N,101,21W,1007,X,,,,W,,7.0,US,38.45,-101.35
KS,LIBERAL,KLBL,LBL,,37,02N,100,58W,877,X,,V,,W,,4.0,US,37.03333333333333,-100.96666666666667
KS,LOGAN,KLG5,,,39,40N,099,34W,597,X,,,,W,,9.0,US,39.666666666666664,-99.56666666666666
KS,LYONS,KLYO,LYO,,38,21N,098,14W,515,X,,,,,,7.0,US,38.35,-98.23333333333333
KS,MANHATTAN,KMHK,MHK,,39,08N,096,41W,320,X,,T,,A,,4.0,US,39.13333333333333,-96.68333333333334
KS,MARYSVILLE,KMYZ,,,39,51N,096,38W,388,X,,,,A,,7.0,US,39.85,-96.63333333333334
KS,MCCONNELL AFB,KIAB,IAB,,37,37N,097,16W,413,X,,T,,,,6.0,US,37.61666666666667,-97.26666666666667
KS,MCPHERSON,KMPR,MPR,,38,21N,097,41W,455,X,,,,W,,9.0,US,38.35,-97.68333333333334
KS,MEDICINE LODGE,KP28,,,37,17N,098,33W,469,X,,,,A,,7.0,US,37.28333333333333,-98.55
KS,NEW ALMELO,KAL8,,,39,36N,100,07W,734,X,,,,W,,8.0,US,39.6,-100.11666666666666
KS,NEWTON,KEWK,EWK,,38,03N,097,16W,468,X,,,,W,,7.0,US,38.05,-97.26666666666667
KS,NORTON,KNRN,,,39,51N,099,54W,726,X,,,,W,,9.0,US,39.85,-99.9
KS,OAKLEY,KOEL,,,39,07N,100,49W,924,X,,,,,,8.0,US,39.11666666666667,-100.81666666666666
KS,OBERLIN,KOIN,,,39,50N,100,32W,810,X,,,,W,,9.0,US,39.833333333333336,-100.53333333333333
KS,OLATHE/EXECUTIVE,KOJC,OJC,,38,51N,094,44W,328,X,,,,A,,7.0,US,38.85,-94.73333333333333
KS,OLATHE/INDUSTRIA,KIXD,JCI,,38,49N,094,53W,322,X,,T,,A,,7.0,US,38.81666666666667,-94.88333333333334
KS,OTTAWA,KOWI,,,38,32N,095,15W,292,X,,,,,,7.0,US,38.53333333333333,-95.25
KS,PARSONS,KPPF,PPF,,37,20N,095,30W,265,X,,,,A,,7.0,US,37.333333333333336,-95.5
KS,PHILLIPSBURG,KPHG,,,39,44N,099,19W,582,X,,,,W,,9.0,US,39.733333333333334,-99.31666666666666
KS,PITTSBURG,KPTS,PTS,,37,27N,094,44W,286,X,,,,,,8.0,US,37.45,-94.73333333333333
KS,PRATT INDUST,KPTT,PTT,74543,37,42N,098,45W,594,X,,,,W,,8.0,US,37.7,-98.75
KS,RUSSELL,KRSL,RSL,,38,52N,098,49W,569,X,,T,,A,,6.0,US,38.86666666666667,-98.81666666666666
KS,SALINA,KSLN,SLN,,38,48N,097,39W,377,X,,U,,A,,6.0,US,38.8,-97.65
KS,SCOTT CITY,KTQK,,,38,28N,100,53W,906,X,,,,W,,9.0,US,38.46666666666667,-100.88333333333334
KS,SMITH CENTER,KK82,,,39,46N,098,48W,548,X,,,,W,,9.0,US,39.766666666666666,-98.8
KS,ST FRANCIS,KSYF,,,39,46N,101,48W,1041,X,,,,W,,9.0,US,39.766666666666666,-101.8
KS,SUBLETTE,K19S,,,37,29N,100,50W,886,X,,,,W,,9.0,US,37.483333333333334,-100.83333333333333
KS,SYRACUSE,K3K3,,,38,00N,101,45W,1010,X,,,,W,,9.0,US,38.0,-101.75
KS,TOPEKA/FORBES,KFOE,FOE,,38,56N,095,39W,315,X,,T,,A,,6.0,US,38.93333333333333,-95.65
KS,TOPEKA,KTOP,TOP,72456,39,04N,095,38W,268,X,,T,X,A,F,3.0,US,39.06666666666667,-95.63333333333334
KS,TRIBUNE,KTRB,,,38,27N,101,45W,1103,X,,,,W,,9.0,US,38.45,-101.75
KS,ULYSSES,KULS,,,37,36N,101,22W,934,X,,,,W,,9.0,US,37.6,-101.36666666666666
KS,WAKEENEY,KWK6,,,39,02N,099,53W,752,X,,,,W,,7.0,US,39.03333333333333,-99.88333333333334
KS,WELLINGTON,KEGT,,,37,19N,097,23W,387,X,,,,W,,9.0,US,37.31666666666667,-97.38333333333334
KS,WICHITA/BEECH,KBEC,BEC,,37,42N,097,13W,421,X,,,,,,8.0,US,37.7,-97.21666666666667
KS,WICHITA/JABARA,KAAO,,,37,45N,097,13W,429,X,,,,A,,7.0,US,37.75,-97.21666666666667
KS,WICHITA,KICT,ICT,72450,37,39N,097,26W,428,X,X,U,,A,F,3.0,US,37.65,-97.43333333333334
KS,WINFIELD/ARKANSA,KWLD,WLD,,37,10N,097,02W,351,X,,,,A,,7.0,US,37.166666666666664,-97.03333333333333
KY,ASHLAND,KDWU,,,38,33N,082,44W,165,X,,T,,,,8.0,US,38.55,-82.73333333333333
KY,BARDSTOWN,KBRY,BRY,,37,49N,085,30W,192,X,,,,,,8.0,US,37.81666666666667,-85.5
KY,BIG SANDY RGNL,KSJS,,,37,45N,082,38W,359,X,,T,,,,8.0,US,37.75,-82.63333333333334
KY,BOWLING GREE,KBWG,BWG,,36,58N,086,25W,159,X,,U,,A,,4.0,US,36.96666666666667,-86.41666666666667
KY,CAMPBELLSVILLE,KAAS,,,37,21N,085,19W,270,X,,,,,,7.0,US,37.35,-85.31666666666666
KY,COVINGTON,KCVG,CVG,72421,39,03N,084,40W,264,X,,U,,A,,0.0,US,39.05,-84.66666666666667
KY,DANVILLE,KDVK,,,37,35N,084,46W,309,X,,,,W,,8.0,US,37.583333333333336,-84.76666666666667
KY,ELIZABETHTOWN,KEKX,EKX,,37,41N,085,55W,234,X,,,,,,8.0,US,37.68333333333333,-85.91666666666667
KY,FALMOUTH,KK62,,,38,42N,084,24W,274,X,,,,W,,8.0,US,38.7,-84.4
KY,FLEMINGSBURG,KFGX,,,38,33N,083,45W,279,X,,,,,,7.0,US,38.55,-83.75
KY,FORT KNOX/GODMAN,KFTK,FTK,72424,37,54N,085,58W,225,X,,T,,,,6.0,US,37.9,-85.96666666666667
KY,FRANKFORT,KFFT,FFT,,38,11N,084,54W,235,X,,,,A,,7.0,US,38.18333333333333,-84.9
KY,GEORGETOWN,K27K,,,38,14N,084,26W,283,X,,,,,,8.0,US,38.233333333333334,-84.43333333333334
KY,GLASGOW,KGLW,GLW,,37,02N,085,57W,216,X,,,,W,,8.0,US,37.03333333333333,-85.95
KY,GREENVILLE,KM21,,,37,13N,087,09W,127,X,,,,,,8.0,US,37.21666666666667,-87.15
KY,HARLAN,KI35,,,36,52N,083,22W,467,X,,,,W,,8.0,US,36.86666666666667,-83.36666666666666
KY,HAZARD,KCPF,,,37,23N,083,16W,382,X,,,,,,7.0,US,37.38333333333333,-83.26666666666667
KY,HENDERSON CITY,KEHR,,,37,49N,087,40W,117,X,,,,,,7.0,US,37.81666666666667,-87.66666666666667
KY,HOPKINSVILLE,KHOP,HOP,74671,36,40N,087,30W,170,X,,T,,,,6.0,US,36.666666666666664,-87.5
KY,LEBANON-SPRINGFI,K6I2,,,37,38N,085,15W,258,X,,,,,,8.0,US,37.63333333333333,-85.25
KY,LEWISPORT,KKY8,,,37,57N,086,52W,124,X,,,,,,8.0,US,37.95,-86.86666666666666
KY,LEXINGTON,KLEX,LEX,72422,38,02N,084,36W,294,X,,T,,A,,4.0,US,38.03333333333333,-84.6
KY,LONDON,KLOZ,LOZ,,37,05N,084,04W,361,X,,U,,A,,6.0,US,37.083333333333336,-84.06666666666666
KY,LOUISVILLE/BOWMN,KLOU,LOU,,38,13N,085,40W,165,X,,,,A,,3.0,US,38.21666666666667,-85.66666666666667
KY,LOUISVILLE,KSDF,SDF,72423,38,11N,085,44W,146,X,,T,,A,,6.0,US,38.18333333333333,-85.73333333333333
KY,LOUISVILLE/WFO,KLMK,,,38,14N,085,40W,166,X,,,,,F,8.0,US,38.233333333333334,-85.66666666666667
KY,MADISONVILLE,K2I0,,,37,21N,087,24W,127,X,,,,W,,8.0,US,37.35,-87.4
KY,MARION,K5M9,,,37,20N,088,07W,199,X,,,,W,,8.0,US,37.333333333333336,-88.11666666666666
KY,MARION,KGDA,,,37,20N,088,06W,199,X,,,,W,,8.0,US,37.333333333333336,-88.1
KY,MAYFIELD,KM25,,,36,46N,088,35W,157,X,,,,W,,8.0,US,36.766666666666666,-88.58333333333333
KY,MIDDLESBORO-BELL,K1A6,,,36,37N,083,44W,348,X,,,,,,8.0,US,36.61666666666667,-83.73333333333333
KY,MONTICELLO/WAYNE,KEKQ,,,36,51N,084,51W,291,X,,,,A,,7.0,US,36.85,-84.85
KY,MOREHEAD,KM97,,,38,13N,083,35W,313,X,,,,,,9.0,US,38.21666666666667,-83.58333333333333
KY,MOREHEAD,KSYM,,,38,13N,083,35W,307,X,,T,,,,9.0,US,38.21666666666667,-83.58333333333333
KY,MOUNT STERLING,KIOB,,,38,03N,083,59W,301,X,,,,,,8.0,US,38.05,-83.98333333333333
KY,MURRAY KYLE-OAK,KCEY,CEY,,36,40N,088,22W,172,X,,,,W,,8.0,US,36.666666666666664,-88.36666666666666
KY,NOCTOR/JACKSON,KJKL,,,37,36N,083,19W,414,X,X,T,,A,F,5.0,US,37.6,-83.31666666666666
KY,OWENSBORO/DAVIES,KOWB,OWB,,37,43N,087,10W,121,X,,T,,,,7.0,US,37.71666666666667,-87.16666666666667
KY,PADUCAH,KPAH,PAH,72435,37,04N,088,46W,125,X,X,T,,A,F,3.0,US,37.06666666666667,-88.76666666666667
KY,PIKEVILLE,KPBX,PVL,,37,34N,082,34W,447,X,,,,,,7.0,US,37.56666666666667,-82.56666666666666
KY,RICHMOND,KRGA,,,37,38N,084,20W,301,X,,,,,,8.0,US,37.63333333333333,-84.33333333333333
